City_ID,City,Lat,Lng,Max Temp,Humidity,Cloudiness,Wind Speed,Country,Date
0,amalapuram,16.5833,82.0167,25.35,92,100,3.96,IN,1690228189
1,fort st. john,56.2499,-120.8529,16.94,67,100,2.06,CA,1690228189
2,blackmans bay,-43.0167,147.3167,9.07,82,95,2.12,AU,1690228189
3,alpine,32.835,-116.7664,38.49,43,0,3.09,US,1690228189
4,albany,42.6001,-73.9662,26.4,81,60,0.89,US,1690228051
5,invercargill,-46.4,168.35,7.35,87,94,4.08,NZ,1690228162
6,kapuskasing,49.4169,-82.4331,22.05,56,75,2.06,CA,1690228189
7,norderney,53.7,7.15,15.57,77,78,8.51,DE,1690228190
8,grytviken,-54.2811,-36.5092,-5.93,77,18,4.69,GS,1690228190
9,vadso,70.0744,29.7487,9.49,100,100,6.17,NO,1690228190
10,isafjordur,66.0755,-23.124,10.26,93,100,2.46,IS,1690228190
11,hermanus,-34.4187,19.2345,10.76,66,0,2.95,ZA,1690228190
12,barra do bugres,-15.0725,-57.1811,34.99,18,0,0.78,BR,1690228190
13,longyearbyen,78.2186,15.6401,11.91,66,40,7.2,SJ,1690228191
14,mahina,-17.5065,-149.489,27.87,78,75,5.14,PF,1690227926
15,puerto natales,-51.7236,-72.4875,-3.49,80,100,0.93,CL,1690228191
16,hasaki,35.7333,140.8333,23.5,90,73,3.6,JP,1690228192
17,manavalakurichi,8.1333,77.3,25.79,82,100,5.0,IN,1690228193
18,waitangi,-43.9535,-176.5597,12.12,98,100,2.68,NZ,1690228193
19,olonkinbyen,70.9221,-8.7187,4.98,92,100,5.92,SJ,1690228193
20,bilibino,68.0546,166.4372,10.07,91,100,0.73,RU,1690228193
21,colonia,50.9333,6.95,17.38,85,20,1.54,DE,1690228009
22,ust-nera,64.5667,143.2,15.68,70,96,2.89,RU,1690228179
23,coxim,-18.5067,-54.76,33.52,20,0,1.92,BR,1690228194
24,bethel,41.3712,-73.414,30.03,55,40,4.63,US,1690228087
25,san luis de la loma,17.2706,-100.8939,31.34,60,99,3.29,MX,1690228194
26,broken hill,-31.95,141.4333,5.67,92,0,4.18,AU,1690228194
27,port-aux-francais,-49.35,70.2167,3.83,72,100,11.1,TF,1690228194
28,dunedin,-45.8742,170.5036,6.56,97,28,0.45,NZ,1690228195
29,college,64.8569,-147.8028,28.04,61,40,0.0,US,1690228195
30,edinburgh of the seven seas,-37.0676,-12.3116,15.0,77,70,16.4,SH,1690228195
31,yellowknife,62.456,-114.3525,24.29,43,100,2.57,CA,1690228182
32,lompoc,34.6391,-120.4579,28.25,68,75,3.6,US,1690227946
33,aguas formosas,-17.0822,-40.9358,23.68,52,63,2.77,BR,1690228195
34,kingston,17.997,-76.7936,34.58,63,20,10.29,JM,1690228052
35,svislach,53.6404,27.9199,15.14,73,95,3.0,BY,1690228196
36,jamestown,42.097,-79.2353,27.51,66,100,4.63,US,1690228104
37,talnakh,69.4865,88.3972,13.45,72,85,0.84,RU,1690228196
38,sungai penuh,-2.0833,101.3833,16.68,92,43,0.5,ID,1690228196
39,papatowai,-46.5619,169.4708,6.9,87,81,3.36,NZ,1690228196
40,saipan,15.1355,145.701,27.58,100,0,2.57,MP,1690228196
41,markova,48.6758,24.4138,18.14,77,96,2.89,UA,1690228197
42,fale old settlement,-9.3852,-171.2468,28.87,71,9,7.81,TK,1690228197
43,thompson,55.7435,-97.8558,25.09,36,20,4.12,CA,1690228197
44,tual,-5.6667,132.75,25.21,76,66,11.13,ID,1690228197
45,alindao,5.0267,21.2088,23.77,88,97,1.23,CF,1690228197
46,georgetown,5.4112,100.3354,27.96,84,20,1.03,MY,1690228197
47,cabo san lucas,22.8909,-109.9124,35.9,69,20,7.72,MX,1690227914
48,horta,38.5333,-28.6333,23.34,83,75,4.02,PT,1690228198
49,nieuw amsterdam,5.8833,-55.0833,34.01,49,40,2.57,SR,1690228198
50,margaret river,-33.95,115.0667,16.58,80,11,8.96,AU,1690228109
51,ouahigouya,13.5828,-2.4216,29.91,52,59,3.11,BF,1690228198
52,tamanrasset,22.785,5.5228,32.95,14,80,4.12,DZ,1690228198
53,togur,58.3631,82.8265,15.13,95,43,1.41,RU,1690228198
54,howard springs,-12.497,131.047,15.95,50,10,3.63,AU,1690228198
55,mawlaik,23.6333,94.4167,25.34,96,94,0.4,MM,1690228199
56,kupang,-10.1667,123.5833,22.43,74,32,6.89,ID,1690228199
57,acarau,-2.8856,-40.12,27.71,69,13,7.89,BR,1690228199
58,mbaiki,3.8678,17.9892,23.14,87,48,0.65,CF,1690228199
59,carbonear,47.7332,-53.2148,25.97,91,94,5.6,CA,1690228199
60,villa gesell,-37.2639,-56.973,8.36,67,90,4.03,AR,1690228199
61,buedu,8.2803,-10.3719,22.35,93,100,0.7,SL,1690228199
62,vila velha,-20.3297,-40.2925,23.97,80,20,4.12,BR,1690227982
63,hithadhoo,-0.6,73.0833,28.27,78,100,6.83,MV,1690228123
64,bredasdorp,-34.5322,20.0403,7.67,74,0,2.36,ZA,1690228112
65,mitchell,43.7094,-98.0298,30.99,55,0,6.17,US,1690228105
66,gospic,44.5461,15.3747,27.83,55,64,3.96,HR,1690228200
67,ribeira grande,38.5167,-28.7,23.76,83,75,4.02,PT,1690228200
68,belmonte,-15.8631,-38.8828,23.14,75,0,5.13,BR,1690228201
69,nova sintra,14.8667,-24.7167,22.82,79,100,6.84,CV,1690228201
70,as sulayyil,20.4607,45.5779,36.14,8,100,2.79,SA,1690228201
71,novospasskoye,53.1468,47.7514,17.11,79,94,1.54,RU,1690228201
72,sao felix do xingu,-6.6447,-51.995,34.21,24,6,1.92,BR,1690228201
73,lebu,-37.6167,-73.65,10.71,88,100,8.6,CL,1690228202
74,brownwood,31.7093,-98.9912,43.0,21,0,0.0,US,1690228139
75,wailua homesteads,22.0669,-159.378,27.44,78,100,7.2,US,1690228202
76,luwuk,-0.9516,122.7875,24.46,87,54,2.23,ID,1690228202
77,aasiaat,68.7098,-52.8699,3.68,95,98,2.8,GL,1690228203
78,hamilton,39.1834,-84.5333,32.17,60,100,7.2,US,1690227929
79,odda,60.0691,6.5457,15.43,90,100,1.5,NO,1690228203
80,ciudad del maiz,22.4,-99.6,20.01,84,93,3.93,MX,1690228203
81,port mathurin,-19.6833,63.4167,23.15,77,45,8.0,MU,1690228203
82,strezhevoy,60.7333,77.5889,17.5,84,99,0.7,RU,1690228204
83,bamboo flat,11.7,92.7167,25.05,94,100,0.0,IN,1690228204
84,haiku-pauwela,20.9219,-156.3051,29.54,64,20,9.26,US,1690228204
85,badger,64.8,-147.5333,27.99,59,40,0.0,US,1690228204
86,el granada,37.5027,-122.4694,30.04,71,75,7.72,US,1690228205
87,sandnessjoen,66.0217,12.6316,15.29,94,75,3.09,NO,1690228205
88,ushuaia,-54.8,-68.3,0.81,64,0,1.54,AR,1690228205
89,champoton,19.35,-90.7167,35.4,44,16,1.98,MX,1690228205
90,adamstown,-25.066,-130.1015,19.89,68,50,3.34,PN,1690228172
91,helena valley southeast,46.6153,-111.9216,34.44,33,0,3.13,US,1690228206
92,jesi,43.5288,13.2402,33.91,51,75,2.57,IT,1690228206
93,remire-montjoly,4.9167,-52.2667,24.02,94,75,5.14,GF,1690228206
94,tsiombe,-25.3,45.4833,16.55,90,58,1.69,MG,1690228206
95,west island,-12.1568,96.8225,24.99,78,40,9.26,CC,1690228206
96,ilulissat,69.2167,-51.1,8.01,87,20,2.06,GL,1690228207
97,chonchi,-42.6128,-73.8092,7.56,95,100,4.13,CL,1690228207
98,santa ana,33.7456,-117.8678,39.67,58,20,4.12,US,1690227835
99,vicksburg,32.3526,-90.8779,33.13,1,0,3.09,US,1690228207
100,ondo,7.1,4.8333,22.17,98,100,1.32,NG,1690228207
101,sengiley,53.9622,48.7944,18.04,76,99,1.67,RU,1690228208
102,phichit,16.25,100.4167,25.43,90,100,1.7,TH,1690228208
103,kristiansund,63.1115,7.732,15.36,72,40,5.66,NO,1690228208
104,olyokminsk,60.3736,120.4264,18.82,78,5,0.63,RU,1690228208
105,tutzing,47.9094,11.2803,18.33,88,100,2.57,DE,1690228208
106,iqaluit,63.7506,-68.5145,7.85,75,75,3.6,CA,1690228209
107,carnarvon,-24.8667,113.6333,15.47,81,5,5.58,AU,1690228209
108,puerto ayora,-0.7393,-90.3518,28.98,98,78,3.58,EC,1690227980
109,faya-largeau,17.9257,19.1043,35.82,12,16,3.13,TD,1690228209
110,hawaiian paradise park,19.5933,-154.9731,27.24,85,100,2.57,US,1690228209
111,port lincoln,-34.7333,135.8667,13.19,70,92,4.61,AU,1690228209
112,tralee,52.2704,-9.7026,13.4,83,100,2.9,IE,1690228210
113,kodiak,57.79,-152.4072,12.73,76,100,4.12,US,1690228210
114,argostolion,38.1811,20.489,32.04,35,0,2.57,GR,1690228210
115,arcos,-20.2819,-45.5394,22.47,57,68,3.41,BR,1690228210
116,san pedro,14.35,121.0167,26.57,95,75,3.6,PH,1690228211
117,tolanaro,-25.0319,46.9987,18.69,89,75,2.3,MG,1690228185
118,tazovsky,67.4667,78.7,14.21,94,76,3.12,RU,1690228211
119,whitehorse,60.7161,-135.0538,16.12,82,75,2.57,CA,1690227886
120,la ronge,55.1001,-105.2842,25.14,41,75,3.09,CA,1690228211
121,touros,-5.1989,-35.4608,26.06,73,18,7.77,BR,1690227956
122,newton,42.337,-71.2092,30.78,61,0,6.17,US,1690227955
123,port alfred,-33.5906,26.891,12.34,68,0,4.45,ZA,1690228212
124,lata,40.1629,-8.3327,19.34,84,5,2.85,PT,1690228212
125,vorgashor,67.5833,63.95,16.07,73,100,1.5,RU,1690228212
126,azacualpa,15.3433,-88.5514,31.36,53,24,2.44,HN,1690228212
127,astrakhan,46.3497,48.0408,22.93,94,40,4.02,RU,1690227954
128,nemuro,43.3236,145.575,16.61,94,100,6.24,JP,1690228212
129,nuuk,64.1835,-51.7216,12.34,71,20,5.66,GL,1690228213
130,kone,-21.0595,164.8658,16.33,82,97,2.13,NC,1690228213
131,kulhudhuffushi,6.6221,73.07,27.9,80,91,5.53,MV,1690228213
132,aykhal,66.0,111.5,13.17,92,99,2.61,RU,1690228213
133,kailua-kona,19.6406,-155.9956,29.72,80,20,4.63,US,1690228214
134,lockwood,45.8191,-108.4149,37.45,23,40,5.66,US,1690228215
135,arhribs,36.7936,4.3116,26.93,61,54,1.27,DZ,1690228215
136,yamada,39.4667,141.95,23.09,86,99,1.91,JP,1690228215
137,yongning,24.68,118.69,26.33,84,87,3.64,CN,1690228216
138,barra de santo antonio,-9.4047,-35.5072,26.6,81,3,4.08,BR,1690228216
139,mantua,45.1667,10.7833,26.72,75,34,3.13,IT,1690228216
140,torghay,49.6339,63.4981,27.17,24,75,5.12,KZ,1690228216
141,la union,-5.4,-80.75,29.87,44,89,7.05,PE,1690228217
142,pagar alam,-4.0167,103.2667,18.54,90,13,1.59,ID,1690228217
143,akhnur,32.8667,74.7333,28.98,63,98,1.59,IN,1690228217
144,port elizabeth,-33.918,25.5701,9.16,81,0,4.12,ZA,1690228217
145,tiksi,71.6872,128.8694,3.69,82,22,2.2,RU,1690228218
146,ola,59.5833,151.2833,14.27,66,1,1.33,RU,1690228218
147,severnoye,56.3491,78.3619,14.34,93,58,2.28,RU,1690228218
148,siwa oasis,29.2041,25.5195,35.33,22,0,8.7,EG,1690228223
149,barda,40.3744,47.1267,29.6,41,82,2.34,AZ,1690228223
150,chanika,-5.4167,38.0167,17.68,99,17,1.67,TZ,1690228224
151,lohardaga,23.4333,84.6833,24.13,86,79,2.15,IN,1690228224
152,narasannapeta,18.4167,84.05,27.0,85,100,3.26,IN,1690228224
153,nabire,-3.3667,135.4833,24.29,90,98,2.46,ID,1690228224
154,puerto baquerizo moreno,-0.9,-89.6,27.55,74,75,5.91,EC,1690228224
155,namibe,-15.1961,12.1522,18.42,81,100,3.1,AO,1690228224
156,boundiali,9.5217,-6.4869,22.78,95,100,0.76,CI,1690228225
157,leninskoye,41.7589,69.3864,27.43,24,0,1.95,KZ,1690228225
158,kaoma,-14.7833,24.8,14.84,35,3,2.83,ZM,1690228225
159,new plymouth,-39.0667,174.0833,13.23,90,23,5.32,NZ,1690228068
160,galesong,-5.3166,119.3661,22.01,77,13,3.11,ID,1690228225
161,avarua,-21.2078,-159.775,23.03,88,75,2.06,CK,1690228226
162,esperanza,19.5847,-70.9849,33.5,55,70,4.02,DO,1690228226
163,utrik,11.2278,169.8474,28.33,77,87,7.47,MH,1690228226
164,egilsstadir,65.2653,-14.3948,7.95,87,75,5.66,IS,1690228226
165,vilyuchinsk,52.9306,158.4028,15.15,84,22,4.62,RU,1690228226
166,posto fiscal rolim de moura,-13.0833,-62.2667,35.46,17,0,0.56,BR,1690228226
167,iskateley,67.6803,53.1512,16.17,74,100,2.26,RU,1690228227
168,taro,-8.3862,115.28,22.0,93,99,0.51,ID,1690228227
169,viqueque,-8.8673,126.3658,19.85,80,97,1.89,TL,1690228227
170,guanica,17.9716,-66.908,33.32,69,56,6.98,PR,1690228227
171,punta del este,-34.9667,-54.95,10.06,89,100,0.89,UY,1690228227
172,tequisquiapan,20.5167,-99.8667,23.56,49,96,5.51,MX,1690228227
173,canutama,-6.5339,-64.3831,35.8,23,45,1.32,BR,1690228228
174,araguari,-18.6472,-48.1872,26.16,40,93,1.71,BR,1690228228
175,port blair,11.6667,92.75,25.02,94,100,0.0,IN,1690228209
176,conde,-7.2597,-34.9075,26.7,74,20,6.69,BR,1690228228
177,panacan,9.2463,118.4082,26.56,86,100,5.04,PH,1690228228
178,tsiroanomandidy,-18.7667,46.0333,19.27,54,67,0.36,MG,1690228228
179,baotou,40.6522,109.8222,23.85,43,3,4.52,CN,1690228229
180,saint-pierre,-21.3393,55.4781,19.82,77,0,3.09,RE,1690228229
181,tionk essil,12.7856,-16.5217,27.98,79,87,3.46,SN,1690228229
182,kecskemet,46.9062,19.6913,28.18,47,0,2.06,HU,1690228230
183,richfield,44.8833,-93.283,33.37,51,75,7.2,US,1690228230
184,markovo,57.3206,107.0881,17.99,77,99,1.25,RU,1690228230
185,otaru,43.1894,141.0022,23.35,93,89,2.31,JP,1690228185
186,nushki,29.5542,66.0215,28.14,58,100,1.46,PK,1690228083
187,qaqortoq,60.7167,-46.0333,6.96,87,80,3.58,GL,1690228235
188,harpswell center,43.8018,-69.9842,29.97,75,66,4.02,US,1690228236
189,kapa'a,22.0752,-159.319,28.18,77,100,7.2,US,1690228236
190,labytnangi,66.6572,66.4183,19.07,62,100,2.93,RU,1690228236
191,klyuchi,52.2667,79.1667,19.5,59,16,3.76,RU,1690228236
192,korla,41.7597,86.1469,28.06,33,100,5.91,CN,1690228237
193,maxixe,-23.8597,35.3472,19.91,93,0,2.24,MZ,1690228237
194,reuleuet,5.2167,96.2833,26.25,68,69,1.92,ID,1690228237
195,shantobe,52.4581,68.1839,16.28,56,78,0.71,KZ,1690228237
196,lihue,21.9789,-159.3672,27.77,71,100,7.2,US,1690228238
197,port macquarie,-31.4333,152.9167,8.83,92,22,3.97,AU,1690228008
198,novodvinsk,64.4165,40.8122,11.29,97,60,2.08,RU,1690228238
199,battagram,34.6772,73.0233,22.92,84,18,1.4,PK,1690228238
200,novy bydzov,50.2415,15.4908,24.15,56,100,5.5,CZ,1690228239
201,gadzhiyevo,69.2551,33.3362,9.2,97,100,5.69,RU,1690228239
202,oyama,36.3,139.8,25.75,79,3,0.97,JP,1690228239
203,sumbe,-11.2061,13.8437,20.39,92,77,1.39,AO,1690228239
204,salinopolis,-0.6136,-47.3561,27.67,76,26,4.97,BR,1690228239
205,mata-utu,-13.2816,-176.1745,26.69,76,100,8.37,WF,1690228240
206,chinchani,19.8667,72.7,26.81,88,89,8.35,IN,1690228240
207,sarkand,45.41,79.9186,21.78,28,0,3.35,KZ,1690228240
208,pratt,37.6439,-98.7376,36.48,38,0,5.14,US,1690228240
209,babolsar,36.7025,52.6576,26.18,72,35,2.86,IR,1690228240
210,sao joao da barra,-21.6403,-41.0511,26.05,79,0,5.41,BR,1690228121
211,yuci,37.6803,112.7319,21.86,60,0,3.0,CN,1690228241
212,el calafate,-50.3408,-72.2768,-5.05,83,100,0.36,AR,1690228241
213,kill devil hills,36.0307,-75.676,28.0,75,75,3.6,US,1690228241
214,puerto vilelas,-27.5141,-58.9391,17.04,72,0,4.12,AR,1690228241
215,susuman,62.7833,148.1667,13.69,61,25,1.29,RU,1690228242
216,santyoku,37.4406,129.1708,24.38,86,100,2.98,KR,1690228242
217,kitimat,54.0524,-128.6534,16.21,54,100,0.74,CA,1690228217
218,palu,-0.8917,119.8707,23.9,96,31,0.86,ID,1690228242
219,urangan,-25.3,152.9,18.16,77,49,9.37,AU,1690228242
220,turpan,42.9333,89.1667,33.97,23,65,0.5,CN,1690228242
221,naze,28.3667,129.4833,27.51,83,100,5.18,JP,1690228242
222,kapit,2.0167,112.9333,23.63,98,100,0.56,MY,1690228243
223,coxen hole,16.3244,-86.5366,30.6,66,20,10.29,HN,1690228243
224,mbeya,-8.9,33.45,13.35,78,11,2.59,TZ,1690228243
225,charters towers,-20.1,146.2667,10.28,91,53,3.65,AU,1690228243
226,poronaysk,49.2167,143.1167,16.67,96,87,0.76,RU,1690228243
227,sierra grande,-41.606,-65.3557,7.06,59,95,8.69,AR,1690228243
228,bridgewater,44.3835,-64.5155,30.06,58,85,9.26,CA,1690228244
229,beau vallon,-20.4189,57.6953,23.13,83,75,4.63,MU,1690228244
230,uglegorsk,49.0833,142.0333,17.87,91,89,0.58,RU,1690228244
231,westport,41.1415,-73.3579,31.16,57,0,4.12,US,1690228244
232,chicoana,-25.1009,-65.5331,12.03,44,47,2.16,AR,1690228244
233,yemetsk,63.4721,41.7941,11.75,96,89,1.66,RU,1690228244
234,anadyr,64.75,177.4833,11.28,87,75,6.0,RU,1690228244
235,keflavik,64.0049,-22.5624,12.24,76,100,4.12,IS,1690228245
236,levuka,50.1834,-105.4011,31.85,40,75,7.2,CA,1690228245
237,constantia,44.1833,28.65,23.38,73,0,8.59,RO,1690228245
238,ar ruways,24.1103,52.7306,32.2,72,100,1.93,AE,1690228245
239,igarka,67.4667,86.5833,14.6,74,47,2.95,RU,1690228167
240,papao,-17.75,-149.55,27.82,84,6,10.3,PF,1690228245
241,sitka,57.0531,-135.33,15.94,77,20,0.0,US,1690228246
242,cadiz,36.5,-5.75,23.68,76,0,1.42,ES,1690228246
243,new norfolk,-42.7826,147.0587,9.72,85,98,1.63,AU,1690228246
244,xuanzhou,30.9525,118.7553,25.92,87,100,1.45,CN,1690228225
245,atafu village,-8.5421,-172.5159,28.93,70,13,7.87,TK,1690228246
246,gubbi,13.3106,76.9444,21.03,91,100,5.66,IN,1690228246
247,el nido,11.1858,119.3956,26.87,86,100,11.82,PH,1690228246
248,bac lieu,9.285,105.7244,25.47,89,77,3.4,VN,1690228247
249,cockburn town,21.4612,-71.1419,30.98,58,40,5.14,TC,1690228247
250,namtsy,62.7161,129.6658,19.84,74,47,1.85,RU,1690228247
251,mossendjo,-2.9506,12.7261,21.18,78,74,1.14,CG,1690228247
252,laguna,38.421,-121.4238,33.38,30,0,2.57,US,1690228247
253,maria la baja,9.9832,-75.3016,33.74,54,94,1.63,CO,1690228252
254,okha,53.5739,142.9478,15.66,84,99,2.07,RU,1690228252
255,arraial do cabo,-22.9661,-42.0278,23.98,73,0,9.26,BR,1690228253
256,la foa,-21.7108,165.8276,17.28,77,100,2.15,NC,1690228253
257,sola,-13.8833,167.55,25.78,86,94,6.29,VU,1690228253
258,fort bragg,35.139,-79.006,32.47,64,0,2.06,US,1690227731
259,yulinshi,38.2906,109.7494,24.3,42,0,2.87,CN,1690228253
260,belyy yar,53.6039,91.3903,16.94,94,0,1.0,RU,1690228253
261,broome,42.2506,-75.833,28.17,68,40,5.14,US,1690228253
262,hakui,36.8833,136.7833,25.63,75,0,1.11,JP,1690228254
263,zouerate,22.7187,-12.4521,35.15,17,6,6.26,MR,1690228254
264,vernon,50.2581,-119.2691,29.96,23,100,1.54,CA,1690228004
265,hungerford,51.4151,-1.5156,15.94,91,91,2.25,GB,1690228254
266,coahuayana de hidalgo,18.7,-103.6583,31.36,61,100,2.42,MX,1690228254
267,daru,-9.0763,143.2092,24.01,73,100,2.5,PG,1690228254
268,enriquillo,17.9,-71.2333,34.82,59,98,5.08,DO,1690228254
269,esqueda,30.7167,-109.5833,35.94,18,0,0.49,MX,1690228255
270,garoowe,8.4054,48.4845,27.36,52,77,11.99,SO,1690228255
271,guerrero negro,27.9769,-114.0611,26.17,51,99,6.73,MX,1690228255
272,pangody,65.85,74.4859,18.09,81,18,2.77,RU,1690228255
273,mukalla,14.5425,49.1242,31.0,74,100,1.84,YE,1690228255
274,karratha,-20.7377,116.8463,15.72,50,0,6.25,AU,1690228255
275,sarykemer,43.0,71.5,24.71,19,26,2.81,KZ,1690228255
276,carrizo springs,28.5219,-99.8606,39.34,28,40,5.67,US,1690228256
277,taguatinga,-12.3857,-46.5711,30.96,28,29,5.35,BR,1690228256
278,numan,9.4667,12.0333,28.14,57,47,5.02,NG,1690228256
279,bodaybo,57.8506,114.1933,16.15,84,25,0.91,RU,1690228256
280,i-n-salah,27.1935,2.4607,39.84,6,0,7.41,DZ,1690228256
281,enewetak,11.3474,162.3373,28.47,77,63,7.23,MH,1690228256
282,yazman,29.1212,71.7446,33.2,58,100,4.02,PK,1690228256
283,carupano,10.6678,-63.2585,28.27,78,55,5.11,VE,1690228257
284,udachny,66.4167,112.4,13.03,93,25,2.49,RU,1690228257
285,quellon,-43.1167,-73.6167,9.14,87,100,11.32,CL,1690228027
286,stanley,54.868,-1.6985,12.66,80,75,1.03,GB,1690227991
287,natal,-5.795,-35.2094,28.36,65,40,8.75,BR,1690227531
288,nouadhibou,20.931,-17.0347,23.99,69,73,9.77,MR,1690228257
289,moussoro,13.6408,16.4901,30.76,50,54,5.34,TD,1690228257
290,port douglas,-16.4833,145.4667,15.73,53,0,3.46,AU,1690228258
291,changji,44.0167,87.3167,28.44,28,0,3.0,CN,1690228258
292,afaahiti,-17.75,-149.2833,26.93,83,6,9.16,PF,1690228258
293,christchurch,-43.5333,172.6333,5.51,94,100,1.54,NZ,1690228196
294,antofagasta,-23.65,-70.4,18.6,72,35,3.59,CL,1690227708
295,waycross,31.2136,-82.354,33.03,57,40,3.6,US,1690228258
296,taft,31.7471,54.2088,32.97,10,40,5.14,IR,1690228258
297,punta arenas,-53.15,-70.9167,-0.97,77,100,2.38,CL,1690228012
298,arteche,12.2645,125.4048,26.7,79,100,6.02,PH,1690228259
299,goianesia,-15.3175,-49.1175,30.65,25,36,3.56,BR,1690228259
300,hiratacho,35.4333,132.8167,26.01,87,0,2.26,JP,1690228259
301,schuyler,42.4167,-76.883,27.46,65,61,2.79,US,1690228259
302,port hueneme,34.1478,-119.1951,39.0,72,40,5.14,US,1690228260
303,flying fish cove,-10.4217,105.6791,23.82,94,100,3.6,CX,1690228260
304,zabaykal'sk,49.6333,117.3167,16.22,88,98,3.29,RU,1690228260
305,gazli,40.1333,63.45,33.52,16,0,5.33,UZ,1690228261
306,belousovka,50.1339,82.5239,14.47,63,87,1.0,KZ,1690228261
307,abakaliki,6.3163,8.1169,22.91,97,96,2.34,NG,1690228261
308,morrilton,35.1509,-92.744,35.46,25,45,1.05,US,1690228261
309,iwanai,42.9744,140.5089,23.35,97,80,1.69,JP,1690228262
310,corte,42.25,9.25,34.22,36,4,2.93,FR,1690228262
311,wuwei,37.9281,102.6414,23.25,28,97,2.49,CN,1690228262
312,rio viejo,8.5874,-73.839,38.42,35,6,1.67,CO,1690228262
313,plana,49.8682,12.7438,20.53,92,100,4.47,CZ,1690228263
314,amga,60.8953,131.9608,17.28,85,99,1.4,RU,1690228263
315,khorinsk,52.1657,109.7726,15.61,97,100,0.41,RU,1690228263
316,telciu,47.4333,24.4,19.24,71,81,2.02,RO,1690228263
317,pasighat,28.0667,95.3333,25.22,91,99,1.23,IN,1690228263
318,dryden,49.7833,-92.7503,25.16,41,40,3.09,CA,1690228194
319,ancud,-41.8697,-73.8203,8.32,93,100,9.42,CL,1690228264
320,dudinka,69.4058,86.1778,13.68,73,40,3.62,RU,1690228264
321,inhambane,-23.865,35.3833,20.0,93,0,2.24,MZ,1690228264
322,mandalgovi,45.7625,106.2708,17.34,58,100,2.86,MN,1690228265
323,navrongo,10.8956,-1.0921,25.12,84,99,1.85,GH,1690228265
324,choibalsan,48.0667,114.5,14.12,86,95,1.84,MN,1690228265
325,thunder bay,48.4001,-89.3168,24.95,38,75,3.09,CA,1690228142
326,anatoli,39.6389,20.8653,27.74,55,0,1.03,GR,1690228265
327,tazacorte,28.629,-17.9293,23.54,83,20,6.69,ES,1690228265
328,rawlins,41.7911,-107.2387,32.94,16,0,4.63,US,1690228266
329,mulayjah,27.271,48.4242,36.18,12,66,2.55,SA,1690228266
330,tchintabaraden,15.8969,5.7985,24.78,77,100,4.5,NE,1690228266
331,argo,37.6333,22.7333,30.44,53,0,0.7,GR,1690228266
332,kati,12.7441,-8.0726,25.67,54,100,0.34,ML,1690228266
333,multan,30.1956,71.4753,26.94,94,100,0.0,PK,1690228267
334,sur,22.5667,59.5289,29.9,70,100,0.82,OM,1690228267
335,al ghayzah,16.2079,52.176,26.54,86,100,3.93,YE,1690228267
336,manaure,11.7751,-72.4445,33.66,47,43,8.47,CO,1690228267
337,luanshya,-13.1367,28.4166,15.89,51,0,1.96,ZM,1690228244
338,yermakovskoye,53.2831,92.4003,13.81,90,100,1.1,RU,1690228267
339,ebon,4.582,168.6964,28.69,77,68,6.06,MH,1690228268
340,petropavlovsk-kamchatsky,53.0452,158.6483,14.33,82,20,3.0,RU,1690228178
341,tisul',55.7611,88.3122,16.25,96,100,2.49,RU,1690228268
342,khandyga,62.6667,135.6,17.12,84,50,1.86,RU,1690228268
343,yantarnyy,54.8717,19.9381,19.92,87,100,1.62,RU,1690228268
344,bardai,11.65,7.2333,24.88,70,28,3.08,NG,1690228268
345,balykshi,47.0667,51.8667,25.0,73,75,4.0,KZ,1690228268
346,mount pearl,47.5166,-52.7813,25.25,82,75,7.72,CA,1690228138
347,calvinia,-31.4707,19.776,7.67,37,99,2.5,ZA,1690228269
348,leava,-14.3,-178.1667,26.4,76,92,8.22,WF,1690228269
349,stanilesti,46.6183,28.1714,23.2,42,2,3.46,RO,1690228269
350,sihanoukville,10.6093,103.5296,24.97,94,75,1.03,KH,1690228269
351,uturoa,-16.7333,-151.4333,26.68,82,18,6.4,PF,1690228269
352,cruzeiro do sul,-29.5128,-51.9853,18.62,87,94,2.93,BR,1690228269
353,taoudenni,22.6783,-3.9836,43.21,11,72,2.75,ML,1690228270
354,boca do acre,-8.7522,-67.3978,36.25,23,0,0.9,BR,1690228270
355,pointe-noire,-4.7761,11.8635,21.53,88,9,3.08,CG,1690228270
356,naryshkino,52.9678,35.7268,15.56,89,99,4.01,RU,1690228270
357,las pedroneras,39.45,-2.6739,27.87,28,4,5.85,ES,1690228270
358,la'ie,21.6477,-157.9253,27.98,72,50,6.81,US,1690228270
359,kargasok,59.0556,80.8572,14.97,94,23,1.67,RU,1690228271
360,kirakira,-10.4544,161.9205,25.45,87,11,1.51,SB,1690228271
361,maamba,-17.3667,27.15,17.6,40,0,1.45,ZM,1690228271
362,katsuren-haebaru,26.3369,127.8719,29.43,82,20,5.14,JP,1690228271
363,mount gambier,-37.8333,140.7667,9.08,80,85,0.74,AU,1690228271
364,palmer,42.1584,-72.3287,29.79,52,75,7.72,US,1690228263
365,cafayate,-26.073,-65.9761,16.9,40,4,3.08,AR,1690228272
366,seryshevo,51.0933,128.3786,18.31,99,100,2.4,RU,1690228272
367,san patricio,28.017,-97.5169,36.77,37,9,7.42,US,1690228252
368,huron,41.1501,-82.5499,29.43,65,0,3.25,US,1690228272
369,tara,56.8944,74.371,14.52,98,84,2.52,RU,1690228272
370,hilo,19.7297,-155.09,33.49,78,100,2.57,US,1690227997
371,amahai,-3.3333,128.9167,24.55,84,88,6.43,ID,1690228272
372,panaba,21.2833,-88.2667,37.62,33,100,4.66,MX,1690228273
373,oneonta,42.4529,-75.0638,26.83,82,21,6.15,US,1690228273
374,tangi,34.3006,71.6536,31.0,65,96,3.35,PK,1690228273
375,nagqu,31.5,92.0,4.7,94,100,2.04,CN,1690228273
376,huarmey,-10.0681,-78.1522,23.49,68,0,5.56,PE,1690228273
377,salinas,36.6777,-121.6555,33.09,58,0,4.63,US,1690228273
378,luganville,-15.5333,167.1667,24.45,93,100,3.82,VU,1690228273
379,aqaba,29.5267,35.0078,38.92,15,0,8.23,JO,1690228171
380,mariehamn,60.0973,19.9348,15.92,82,0,2.57,AX,1690228274
381,moanda,-1.5575,13.2178,24.38,72,100,1.52,GA,1690228274
382,tan-tan,28.438,-11.1032,20.46,83,1,7.19,MA,1690228274
383,ciudad lazaro cardenas,17.9583,-102.2,32.19,55,100,2.53,MX,1690228274
384,pingxiang,27.6167,113.85,25.64,89,100,0.62,CN,1690228274
385,muleba,-1.8397,31.6544,22.36,58,48,0.69,TZ,1690228274
386,happy valley-goose bay,53.3168,-60.3315,23.17,78,75,0.0,CA,1690228275
387,floro,61.5996,5.0328,15.04,82,75,4.63,NO,1690228275
388,altamont,42.2068,-121.7372,26.66,37,0,3.09,US,1690228248
389,ostersund,63.1792,14.6357,16.25,33,97,2.57,SE,1690228041
390,bojnurd,37.4747,57.329,24.97,25,0,2.06,IR,1690228275
391,tongliao,43.6125,122.2653,20.33,73,82,0.78,CN,1690228275
392,fortuna,40.5982,-124.1573,24.4,68,20,6.17,US,1690228025
393,st. john's,47.5649,-52.7093,25.71,86,75,7.72,CA,1690228275
394,spearfish,44.4908,-103.8594,36.17,30,0,6.17,US,1690228276
395,prado,-17.3411,-39.2208,22.09,83,5,3.78,BR,1690228276
396,katima mulilo,-17.5,24.2667,16.23,30,21,1.5,NA,1690228276
397,menongue,-14.6585,17.691,15.34,29,99,1.6,AO,1690228276
398,sosnovo-ozerskoye,52.5249,111.5418,13.49,95,100,0.95,RU,1690228276
399,nyurba,63.2842,118.3319,17.93,89,59,3.42,RU,1690228276
400,biryusinsk,55.9634,97.8235,16.19,85,100,3.18,RU,1690228276
401,quelimane,-17.8786,36.8883,21.97,83,0,2.24,MZ,1690228187
402,la passe,45.5549,-0.8967,20.13,78,56,7.16,FR,1690228226
403,pindushi,62.9152,34.58,10.74,98,99,0.9,RU,1690228277
404,yarmouth,41.7057,-70.2286,28.03,73,0,6.69,US,1690228195
405,tura,25.5198,90.2201,23.79,96,100,2.14,IN,1690228277
406,douglas,41.3,-96.167,33.1,60,0,4.63,US,1690228277
407,piton saint-leu,-21.2196,55.3151,19.04,77,0,3.09,RE,1690228277
408,nizhny tagil,57.9194,59.965,15.45,81,90,1.4,RU,1690228278
409,orchard homes,46.8633,-114.0484,31.08,25,0,2.06,US,1690228278
410,long beach,33.767,-118.1892,38.32,71,0,6.17,US,1690228246
411,katsuura,35.1333,140.3,24.62,91,22,3.31,JP,1690228278
412,letterkenny,54.95,-7.7333,13.94,84,89,2.66,IE,1690228278
413,playas,-2.6333,-80.3833,26.83,74,42,6.14,EC,1690228278
414,chui,-33.6971,-53.4616,9.12,93,100,5.42,UY,1690228278
415,coquimbo,-29.9533,-71.3436,16.85,72,0,6.69,CL,1690228115
416,bel ombre,-4.6167,55.4167,25.91,83,20,6.69,SC,1690228279
417,mockrehna,51.5076,12.8142,17.84,91,41,2.93,DE,1690228074
418,ghanzi,-21.5667,21.7833,17.43,29,14,3.07,BW,1690228279
419,chipinge,-20.1883,32.6236,14.23,45,10,1.5,ZW,1690228279
420,nadym,65.5333,72.5167,19.63,72,95,3.39,RU,1690228279
421,comilla,23.4578,91.2044,26.82,87,93,2.54,BD,1690228135
422,saraykoy,37.9245,28.9252,27.64,39,0,3.57,TR,1690228280
423,ceres,37.5949,-120.9577,38.22,32,0,3.6,US,1690228280
424,nouna,12.7333,-3.8667,28.96,60,91,3.47,BF,1690228280
425,san andres,12.5847,-81.7006,32.01,70,20,5.14,CO,1690228280
426,harper,4.375,-7.7169,25.34,83,95,4.39,LR,1690228280
427,vale da amoreira,39.0697,-7.6985,22.96,48,0,5.59,PT,1690228280
428,canto del llano,8.1761,-80.973,28.7,86,100,0.45,PA,1690228281
429,burang,30.25,81.1667,11.75,76,95,2.34,CN,1690228281
430,dubbo,-32.25,148.6167,4.07,87,0,6.17,AU,1690228281
431,muang phonsavan,19.45,103.2167,18.1,99,99,0.63,LA,1690228281
432,the dalles,45.5946,-121.1787,30.08,41,0,8.94,US,1690228225
433,orkney,-26.9802,26.6727,10.41,14,99,1.48,ZA,1690228281
434,bakanas,44.8081,76.2772,28.5,17,0,3.92,KZ,1690228281
435,pitimbu,-7.4706,-34.8086,27.33,79,3,6.66,BR,1690228282
436,oranjestad,12.524,-70.027,31.97,62,20,10.8,AW,1690228139
437,ketchikan,55.3422,-131.6461,18.26,68,0,6.17,US,1690228132
438,suicheng,33.8963,117.9331,25.98,85,99,0.97,CN,1690228282
439,villa juarez,24.6536,-107.5411,35.14,55,75,3.09,MX,1690228282
440,kolonia town,6.964,158.206,25.0,94,100,1.03,FM,1690228282
441,shenkursk,62.1091,42.896,11.63,95,39,1.9,RU,1690228282
442,boende,-0.2167,20.8667,25.42,76,99,0.79,CD,1690228283
443,champerico,14.3,-91.9167,34.3,63,98,2.72,GT,1690228283
444,codrington,-38.2667,141.9667,11.5,67,98,1.58,AU,1690228283
445,mount isa,-20.7333,139.5,11.87,58,69,6.69,AU,1690228283
446,xinyuan,37.3,99.0,4.93,91,22,1.85,CN,1690228207
447,akureyri,65.6835,-18.0878,10.96,93,100,3.6,IS,1690228284
448,lucea,18.451,-78.1736,31.92,78,14,7.8,JM,1690228284
449,san rafael del sur,11.8485,-86.4384,30.54,48,91,7.35,NI,1690228284
450,dergachi,51.2328,48.7659,21.17,61,100,2.25,RU,1690228284
451,tay ninh,11.3,106.1,24.58,93,92,2.13,VN,1690228285
452,mugia,43.1041,-9.2179,19.39,72,63,4.6,ES,1690228285
453,ta`u,-14.2336,-169.5144,25.87,73,93,5.71,AS,1690228285
454,lulea,65.5842,22.1547,13.04,71,100,4.12,SE,1690228285
455,borujen,31.9652,51.2873,24.38,21,55,2.02,IR,1690228287
456,rawson,-43.3002,-65.1023,8.07,60,96,10.91,AR,1690228288
457,xilin hot,43.9667,116.0333,16.92,58,2,1.58,CN,1690228288
458,fort mcmurray,56.7268,-111.381,27.77,50,0,3.09,CA,1690228092
459,antsohihy,-14.8796,47.9875,22.21,73,62,1.7,MG,1690228289
460,otofuke,42.9917,143.2003,21.92,87,11,0.73,JP,1690228289
461,quixeramobim,-5.1992,-39.2928,33.2,29,64,3.19,BR,1690228289
462,kiunga,-6.1219,141.2906,20.99,98,100,0.86,PG,1690228289
463,rajaori,33.3833,74.3,24.77,80,75,1.41,IN,1690228289
464,bandarbeyla,9.4942,50.8122,24.88,73,65,15.1,SO,1690228290
465,graaff-reinet,-32.2522,24.5308,6.62,70,0,0.34,ZA,1690228290
466,bloemfontein,-29.1211,26.214,4.71,60,98,2.06,ZA,1690228290
467,road town,18.4167,-64.6167,32.02,62,40,6.17,VG,1690228291
468,nar'yan-mar,67.6713,53.087,16.21,74,100,2.19,RU,1690228292
469,ebaye,8.7748,167.7392,28.01,78,40,7.72,MH,1690228292
470,alice springs,-23.7,133.8833,4.75,81,0,0.0,AU,1690228180
471,aldan,58.6031,125.3894,15.59,83,100,0.53,RU,1690228294
472,bentiu,9.2333,29.8333,26.61,65,52,1.67,SS,1690228294
473,chulakkurgan,43.765,69.1814,28.73,17,0,3.98,KZ,1690228294
474,gornopravdinsk,60.05,69.9,14.3,95,100,1.24,RU,1690228295
475,weno,7.4515,151.8468,28.24,77,100,7.85,FM,1690228295
476,callao,-12.0667,-77.15,24.16,53,20,5.66,PE,1690228161
477,ankang,32.68,109.0172,22.49,87,27,0.51,CN,1690228297
478,walvis bay,-22.9575,14.5053,12.27,87,78,0.0,NA,1690228011
479,okhotsk,59.3833,143.3,16.05,70,4,1.41,RU,1690228299
480,fiambala,-27.6871,-67.6149,16.3,33,19,2.13,AR,1690228300
481,cabedelo,-6.9811,-34.8339,27.37,80,0,7.17,BR,1690228300
482,yuzhno-kurilsk,44.0306,145.8556,17.37,100,100,2.62,RU,1690228301
483,corning,42.1428,-77.0547,27.63,64,75,2.57,US,1690228262
484,kota belud,6.351,116.4305,25.58,80,100,3.7,MY,1690228307
485,aswan,24.0934,32.907,35.61,20,0,5.14,EG,1690228309
486,plastun,44.7561,136.2939,19.32,98,80,0.9,RU,1690228309
487,song cau,13.45,109.2167,25.26,90,100,1.76,VN,1690228309
488,heroica caborca,30.7167,-112.15,40.42,21,63,2.6,MX,1690228309
489,lorengau,-2.0226,147.2712,25.0,90,100,2.51,PG,1690228310
490,howrah,22.5892,88.3103,28.0,89,20,2.06,IN,1690228311
491,douz,33.4663,9.0203,37.44,10,0,3.45,TN,1690228311
492,fortaleza,-3.7227,-38.5247,29.07,61,20,5.66,BR,1690228182
493,mushie,-3.0167,16.9,27.37,55,52,1.46,CD,1690228311
494,hastings,50.8552,0.5729,16.07,34,99,4.17,GB,1690228097
495,mellouleche,35.1662,11.035,32.4,53,0,5.13,TN,1690228314
496,praia,14.9215,-23.5087,27.3,74,75,5.66,CV,1690228314
497,tegueste,28.5167,-16.3167,20.92,83,40,10.29,ES,1690228315
498,margate,51.3813,1.3862,16.06,78,100,2.24,GB,1690228317
499,mariental,-24.6333,17.9667,16.15,16,74,6.48,NA,1690228317
500,kyabe,9.4515,18.9449,26.01,78,47,1.57,TD,1690228317
501,nadi,-17.8,177.4167,23.0,83,100,1.54,FJ,1690228318
502,afif,23.9065,42.9172,31.56,11,85,5.29,SA,1690228318
503,kourou,5.1552,-52.6478,24.03,88,54,4.04,GF,1690228320
504,trairi,-3.2778,-39.2689,27.05,72,7,6.14,BR,1690228229
505,greenville,35.6127,-77.3663,32.09,66,40,3.6,US,1690228082
506,itaituba,-4.2761,-55.9836,36.09,32,20,2.57,BR,1690228323
507,maine soroa,13.2114,12.0241,32.32,40,7,2.75,NE,1690228324
508,la mira,18.035,-102.3266,31.94,57,100,2.54,MX,1690228325
509,zeya,53.75,127.2667,16.59,96,100,3.0,RU,1690228326
510,castillos,-34.1667,-53.8333,7.88,95,100,1.94,UY,1690228326
511,sinabang,2.4803,96.3801,26.39,79,16,0.53,ID,1690228327
512,yantzaza,-3.8278,-78.7594,25.34,66,100,1.61,EC,1690228327
513,yoloten,37.2989,62.3597,30.64,17,0,4.99,TM,1690228327
514,luderitz,-26.6481,15.1594,13.96,62,100,4.35,NA,1690228329
515,serta,39.8085,-8.0988,19.97,71,0,4.74,PT,1690228330
516,tongouson,5.0214,120.1328,28.54,79,100,7.39,PH,1690228330
517,rabaul,-4.1967,152.1721,25.99,81,97,7.76,PG,1690228256
518,alofi,-19.0595,-169.9187,21.94,73,40,2.57,NU,1690228331
519,todos santos,23.45,-110.2167,38.91,86,69,2.64,MX,1690228332
520,tidjikja,18.5564,-11.4271,35.69,31,24,3.61,MR,1690228333
521,jiangzi,28.95,89.6333,7.85,74,100,1.2,CN,1690228333
522,cestos city,5.46,-9.5828,25.02,87,100,4.75,LR,1690228334
523,tono,39.3167,141.5333,21.19,90,67,1.41,JP,1690228334
524,nampula,-15.1165,39.2666,15.52,95,3,0.83,MZ,1690228082
525,plouzane,48.3833,-4.6167,16.03,85,75,6.69,FR,1690228335
526,latrobe,40.3212,-79.3795,30.02,53,40,3.58,US,1690228245
527,parry sound,45.3501,-80.033,25.03,65,52,4.23,CA,1690228335
528,berezovyy,51.6667,135.7,18.41,92,100,1.78,RU,1690228335
529,vavatenina,-17.4667,49.2,18.23,95,69,0.99,MG,1690228336
530,sinjai,-5.1241,120.253,24.09,83,97,0.66,ID,1690228336
531,kaohsiung,22.6163,120.3133,28.97,79,20,1.03,TW,1690228091
532,satellite beach,28.1761,-80.5901,37.26,72,0,8.23,US,1690228336
533,bandon,51.7469,-8.7425,15.77,75,100,4.24,IE,1690228336
534,mokhsogollokh,61.4681,128.9203,17.86,83,1,1.99,RU,1690228337
535,oodweyne,9.4092,45.064,25.32,47,100,7.74,SO,1690228337
536,sao jose da coroa grande,-8.8978,-35.1478,24.08,81,10,4.25,BR,1690228337
537,antsiranana,-12.2787,49.2917,22.26,81,50,5.22,MG,1690228337
538,ghormach,35.7306,63.7826,30.14,17,0,1.84,AF,1690228337
539,rapar,23.5667,70.6333,27.99,83,100,6.67,IN,1690228337
540,krasnoslobodsk,48.7072,44.5714,23.9,56,0,3.0,RU,1690228338
541,siem reap,13.5,104.0,24.86,97,72,1.31,KH,1690228338
542,xindian,36.7975,118.2944,27.71,62,81,2.14,CN,1690228338
543,rahimatpur,17.6,74.2,22.5,91,100,6.78,IN,1690228338
544,princeville,45.7668,-61.2985,29.24,61,0,4.12,CA,1690228338
545,saudarkrokur,65.7461,-19.6394,10.24,90,100,1.25,IS,1690228338
546,mar del plata,-38.0023,-57.5575,8.3,68,40,6.71,AR,1690228182
547,peace river,56.2501,-117.286,19.17,88,100,3.6,CA,1690228090
548,lagoa,39.05,-27.9833,22.02,85,2,5.44,PT,1690228339
549,tofol,5.3248,163.0078,28.64,74,95,5.49,FM,1690228339
550,reggane,26.7158,0.1714,41.7,8,71,4.82,DZ,1690228339
551,taksimo,56.3444,114.8794,15.53,83,9,0.34,RU,1690228339
552,starominskaya,46.53,39.0497,22.11,70,99,2.99,RU,1690228340
553,pechora,65.1472,57.2244,15.96,74,64,2.02,RU,1690228340
554,la carlota,10.4233,122.9208,25.77,89,100,7.87,PH,1690228340
555,antigo,45.1402,-89.1523,27.25,53,40,4.12,US,1690228340
556,camacupa,-12.0167,17.4833,16.59,22,97,0.84,AO,1690228340
557,revda,56.801,59.9303,12.47,94,33,1.63,RU,1690228340
558,lebanon,36.2081,-86.2911,33.48,55,0,2.57,US,1690228298
559,podporozh'ye,60.9112,34.1706,12.4,97,100,2.03,RU,1690228341
560,geraldton,-28.7667,114.6,10.23,66,3,5.14,AU,1690228269
561,bijie,27.3125,105.2942,18.46,94,100,1.33,CN,1690228341
562,cadale,2.7603,46.3222,25.2,82,73,8.85,SO,1690228342
563,kairouan,35.6781,10.0963,42.01,9,0,2.06,TN,1690228342
564,robertsport,6.7533,-11.3686,25.6,85,100,5.52,LR,1690228342
565,karkira,36.9292,6.5856,34.45,20,0,3.74,DZ,1690228342
566,las palmas,28.4204,-14.0131,23.44,61,20,7.72,ES,1690228342
567,n'zeto,-7.2312,12.8666,21.04,89,5,2.91,AO,1690228342
568,maitum,6.0392,124.4986,24.47,90,100,1.81,PH,1690228343
569,ghadamis,30.1337,9.5007,36.32,12,0,3.63,LY,1690228343
570,morehead city,34.7229,-76.726,32.01,74,0,3.09,US,1690228343
571,nahiyat ash shinafiyah,31.5874,44.6602,38.43,7,0,3.62,IQ,1690228343
572,chom bueng,13.62,99.5917,24.57,83,99,1.78,TH,1690228343
573,mitu,1.1983,-70.1733,27.88,67,81,0.76,CO,1690228344
574,chaplygin,53.2432,39.9629,16.94,71,52,3.5,RU,1690228344
575,koudougou,12.25,-2.3667,25.67,80,43,2.73,BF,1690228344
576,ribeira brava,32.65,-17.0667,25.56,77,44,0.95,PT,1690228344
577,oskarshamn,57.2645,16.4484,17.77,95,38,3.79,SE,1690228344
578,encrucijada,22.6169,-79.8711,34.31,52,75,6.17,CU,1690228344
579,lautoka,-17.6167,177.4667,22.92,83,100,1.54,FJ,1690228345
580,kot sultan,30.7737,70.9313,33.17,55,100,1.72,PK,1690228345
581,ingeniero guillermo n. juarez,-23.9,-61.85,18.43,47,100,4.63,AR,1690228345
582,hadibu,12.65,54.0333,25.09,79,56,8.24,YE,1690228283
583,uray,60.1247,64.7758,13.83,90,76,1.95,RU,1690228345
