City_ID,City,Lat,Lng,Max Temp,Humidity,Cloudiness,Wind Speed,Country,Date
0,iqaluit,63.7506,-68.5145,9.85,71,75,5.14,CA,1690221874
1,bethel,41.3712,-73.414,30.3,56,20,6.17,US,1690222467
2,touros,-5.1989,-35.4608,28.27,61,36,8.54,BR,1690221910
3,grytviken,-54.2811,-36.5092,-5.71,75,86,4.51,GS,1690222467
4,aur,8.1499,171.1687,28.43,75,82,8.12,MH,1690222467
5,cole harbour,44.6724,-63.4751,30.1,64,75,6.69,CA,1690222467
6,blackmans bay,-43.0167,147.3167,8.07,84,12,2.42,AU,1690222467
7,port-aux-francais,-49.35,70.2167,3.95,71,100,11.24,TF,1690222467
8,coahuayana de hidalgo,18.7,-103.6583,32.12,56,89,1.9,MX,1690222468
9,edinburgh of the seven seas,-37.0676,-12.3116,14.63,81,70,15.81,SH,1690222468
10,badger,64.8,-147.5333,26.18,67,75,1.54,US,1690222468
11,broken hill,-31.95,141.4333,6.21,90,0,4.39,AU,1690222468
12,kathmandu,27.7167,85.3167,21.12,93,100,3.09,NP,1690222056
13,new norfolk,-42.7826,147.0587,8.72,89,61,1.86,AU,1690222468
14,howard springs,-12.497,131.047,16.95,41,7,3.86,AU,1690222469
15,west island,-12.1568,96.8225,24.99,78,40,7.72,CC,1690222469
16,veraval,20.9,70.3667,27.35,88,96,8.43,IN,1690222469
17,kidal,18.4411,1.4078,39.29,21,23,3.46,ML,1690222469
18,vila franca do campo,37.7167,-25.4333,26.23,69,52,2.08,PT,1690222469
19,adamstown,-25.066,-130.1015,19.91,69,58,4.32,PN,1690222469
20,wailua homesteads,22.0669,-159.378,26.44,82,100,7.72,US,1690222469
21,puerto natales,-51.7236,-72.4875,-3.28,76,100,0.81,CL,1690222470
22,usogorsk,63.4106,48.6872,14.28,89,81,1.86,RU,1690222470
23,waitangi,-43.9535,-176.5597,11.57,98,100,2.24,NZ,1690222470
24,mejit,10.2753,170.8646,28.22,76,48,7.72,MH,1690222470
25,matoury,4.8483,-52.3317,29.98,66,0,1.03,GF,1690222470
26,tura,25.5198,90.2201,24.65,90,100,1.83,IN,1690222470
27,bathsheba,13.2167,-59.5167,26.34,89,75,9.26,BB,1690222471
28,albany,42.6001,-73.9662,30.53,70,74,0.45,US,1690222292
29,kuusamo,65.9667,29.1833,11.91,93,100,1.88,FI,1690222471
30,fort bragg,35.139,-79.006,31.08,66,75,3.09,US,1690222330
31,hawaiian paradise park,19.5933,-154.9731,24.73,92,100,0.0,US,1690222471
32,san jose,37.3394,-121.895,27.73,54,20,2.57,US,1690222471
33,port hedland,-20.3167,118.5667,12.03,43,0,3.6,AU,1690222472
34,margaret river,-33.95,115.0667,16.23,75,2,8.21,AU,1690222472
35,coquimbo,-29.9533,-71.3436,16.85,72,0,4.63,CL,1690222024
36,invercargill,-46.4,168.35,6.29,89,91,3.08,NZ,1690222472
37,fort st. john,56.2499,-120.8529,14.94,82,100,2.06,CA,1690222249
38,weno,7.4515,151.8468,28.21,77,100,7.14,FM,1690222472
39,uturoa,-16.7333,-151.4333,26.64,82,37,6.43,PF,1690222472
40,chonchi,-42.6128,-73.8092,7.29,94,100,4.42,CL,1690222473
41,antofagasta,-23.65,-70.4,18.6,70,44,3.94,CL,1690222473
42,talnakh,69.4865,88.3972,13.45,71,74,0.99,RU,1690222473
43,pisco,-13.7,-76.2167,22.03,64,0,3.6,PE,1690222473
44,tofol,5.3248,163.0078,28.31,74,88,5.15,FM,1690222473
45,vondrozo,-22.8167,47.2833,16.04,98,5,0.55,MG,1690222473
46,yellowknife,62.456,-114.3525,25.11,34,10,3.77,CA,1690222210
47,bikenibeu village,1.3673,173.1241,28.49,77,45,4.72,KI,1690222475
48,la union,-5.4,-80.75,29.78,44,24,5.87,PE,1690222475
49,kajaani,64.2273,27.7285,13.03,94,100,1.03,FI,1690222475
50,iskateley,67.6803,53.1512,16.32,75,100,3.05,RU,1690222475
51,laguna,38.421,-121.4238,30.6,45,0,3.6,US,1690222475
52,santa luzia,-19.7697,-43.8514,24.19,52,75,5.14,BR,1690222475
53,punta del este,-34.9667,-54.95,10.06,89,100,3.09,UY,1690222320
54,avarua,-21.2078,-159.775,22.03,88,100,2.57,CK,1690222224
55,sonderborg,54.9093,9.8074,18.38,72,75,4.12,DK,1690222476
56,mil'kovo,55.6078,37.7956,16.27,95,83,2.16,RU,1690222476
57,ballycastle,55.2044,-6.243,14.74,72,98,5.94,GB,1690222476
58,salavan,15.7167,106.4167,23.06,98,94,1.16,LA,1690222476
59,rio san juan,19.6439,-70.0763,30.18,66,26,6.61,DO,1690222476
60,port mathurin,-19.6833,63.4167,23.04,78,25,8.17,MU,1690222477
61,geraldton,-28.7667,114.6,10.23,66,29,6.69,AU,1690222306
62,kulhudhuffushi,6.6221,73.07,27.84,82,96,5.4,MV,1690222477
63,queenstown,-31.8976,26.8753,6.19,46,0,0.83,ZA,1690222477
64,kodiak,57.79,-152.4072,12.73,76,100,4.63,US,1690222298
65,as sulayyil,20.4607,45.5779,38.14,8,86,4.3,SA,1690222477
66,mana,5.6592,-53.7767,29.31,72,16,4.03,GF,1690222477
67,jamestown,42.097,-79.2353,28.34,51,0,5.14,US,1690222478
68,la passe,45.5549,-0.8967,22.13,71,73,7.54,FR,1690222478
69,cabo san lucas,22.8909,-109.9124,33.67,62,20,5.14,MX,1690222228
70,clovis,36.8252,-119.7029,37.0,29,75,4.12,US,1690222478
71,vorkuta,67.5,64.0,16.97,71,75,2.18,RU,1690222478
72,georgetown,5.4112,100.3354,27.23,84,20,1.03,MY,1690222478
73,sinabang,2.4803,96.3801,26.66,79,28,1.06,ID,1690222478
74,nar'yan-mar,67.6713,53.087,16.4,75,100,3.02,RU,1690222479
75,mthatha,-31.5889,28.7844,7.31,81,0,0.51,ZA,1690222479
76,lamu,-2.2717,40.902,24.12,83,44,6.45,KE,1690222479
77,alofi,-19.0595,-169.9187,21.94,73,75,3.09,NU,1690222479
78,vila velha,-20.3297,-40.2925,24.97,75,20,4.12,BR,1690222328
79,petawawa,45.9001,-77.3328,25.88,62,75,4.12,CA,1690222479
80,castillos,-34.1667,-53.8333,8.13,91,100,2.29,UY,1690222480
81,sault ste. marie,46.5168,-84.3333,23.31,73,0,3.6,CA,1690222005
82,san antonio de pale,-1.4014,5.6325,22.73,85,97,5.18,GQ,1690222480
83,vallenar,-28.5708,-70.7581,24.13,28,37,2.52,CL,1690222480
84,boende,-0.2167,20.8667,25.24,74,80,1.04,CD,1690222480
85,puerto ayora,-0.7393,-90.3518,28.98,80,93,4.91,EC,1690222480
86,ushuaia,-54.8,-68.3,-0.19,74,0,2.06,AR,1690222480
87,vernon,50.2581,-119.2691,28.85,25,41,1.03,CA,1690222418
88,alice springs,-23.7,133.8833,4.75,81,0,0.0,AU,1690222481
89,devils lake,48.1128,-98.8651,29.06,60,0,4.63,US,1690222481
90,monte patria,-30.6919,-70.9467,22.16,33,68,2.4,CL,1690222481
91,papatowai,-46.5619,169.4708,6.79,88,87,3.36,NZ,1690222481
92,bilibino,68.0546,166.4372,9.76,92,100,0.69,RU,1690222482
93,betio village,1.358,172.9211,28.57,77,18,4.78,KI,1690222482
94,st. john's,47.5649,-52.7093,25.71,85,75,9.77,CA,1690222334
95,longyearbyen,78.2186,15.6401,11.91,71,75,6.69,SJ,1690222483
96,acarau,-2.8856,-40.12,30.43,56,14,8.51,BR,1690222194
97,ulladulla,-35.35,150.4667,8.25,77,5,1.89,AU,1690222483
98,chongwe,-15.3292,28.682,17.32,41,0,1.43,ZM,1690222483
99,forster,-32.1667,152.5167,11.09,92,38,2.94,AU,1690222484
100,nikolayevsk-on-amure,53.1406,140.73,17.22,69,99,1.36,RU,1690222484
101,naze,28.3667,129.4833,26.51,84,100,6.08,JP,1690222484
102,cidreira,-30.1811,-50.2056,17.41,95,100,4.79,BR,1690222264
103,newman,37.3138,-121.0208,32.25,14,84,0.9,US,1690222484
104,mount isa,-20.7333,139.5,11.87,58,2,6.69,AU,1690222485
105,nemuro,43.3236,145.575,16.25,97,100,4.8,JP,1690222485
106,lemoore,36.3008,-119.7829,33.01,23,0,4.63,US,1690222485
107,marsa alam,25.0757,34.8918,32.39,51,1,2.21,EG,1690222485
108,belle fourche,44.6714,-103.8522,35.75,19,85,6.39,US,1690222486
109,zhob,31.3411,69.4481,24.97,69,72,1.11,PK,1690222486
110,sapatgram,26.3334,90.109,26.5,91,100,0.84,IN,1690222486
111,bonthe,7.5264,-12.505,26.48,81,86,4.29,SL,1690222486
112,sayyan,15.1718,44.3244,20.65,50,100,2.06,YE,1690222486
113,kingston,17.997,-76.7936,33.47,65,29,1.34,JM,1690222273
114,haiku-pauwela,20.9219,-156.3051,26.69,76,20,7.72,US,1690222487
115,xinyuan,37.3,99.0,5.69,89,79,0.94,CN,1690222487
116,machhiwara,30.9147,76.1983,32.76,66,88,2.6,IN,1690222487
117,acapulco de juarez,16.8634,-99.8901,32.9,55,75,2.57,MX,1690222487
118,peniche,39.3558,-9.3811,23.49,73,18,6.73,PT,1690222444
119,lebu,-37.6167,-73.65,10.8,83,95,8.54,CL,1690222488
120,sandnessjoen,66.0217,12.6316,15.29,88,75,2.06,NO,1690222488
121,bredasdorp,-34.5322,20.0403,8.32,73,0,2.16,ZA,1690222488
122,wildwood,38.5828,-90.6629,32.69,66,40,5.14,US,1690222488
123,klyuchi,52.2667,79.1667,21.63,53,9,4.75,RU,1690222488
124,byron bay,-28.65,153.6167,9.28,63,54,5.42,AU,1690222479
125,arrifes,37.7667,-25.7,24.14,65,20,5.14,PT,1690221945
126,zalari,53.5584,102.5065,14.26,94,29,0.7,RU,1690222489
127,cooper's town,26.8667,-77.5167,29.73,68,25,0.44,BS,1690222489
128,ascension,30.2169,-90.9001,35.04,47,0,1.54,US,1690222489
129,tiksi,71.6872,128.8694,3.38,85,19,1.89,RU,1690222489
130,bangil,-7.5994,112.8186,25.99,77,69,1.78,ID,1690222489
131,gobabis,-22.45,18.9667,18.49,24,8,3.33,NA,1690222489
132,punta arenas,-53.15,-70.9167,-0.8,72,100,2.85,CL,1690222489
133,stanley,54.868,-1.6985,14.33,75,40,1.54,GB,1690222490
134,arraial do cabo,-22.9661,-42.0278,25.98,73,0,6.69,BR,1690222476
135,christchurch,-43.5333,172.6333,6.06,94,100,0.51,NZ,1690222175
136,salekhard,66.53,66.6019,20.23,59,97,1.81,RU,1690222209
137,genhe,50.7833,121.5167,13.55,95,82,1.03,CN,1690222490
138,college,64.8569,-147.8028,26.22,67,40,1.54,US,1690222339
139,labrador city,52.9463,-66.9114,24.95,36,40,4.63,CA,1690222491
140,turpan,42.9333,89.1667,35.15,22,34,1.52,CN,1690222491
141,morondava,-20.2833,44.2833,22.68,76,0,6.94,MG,1690222491
142,santana,-0.0583,-51.1817,33.1,62,40,2.06,BR,1690222453
143,kokopo,-4.352,152.2633,25.07,84,66,6.22,PG,1690222491
144,nicoya,10.1483,-85.452,31.07,63,78,5.6,CR,1690222492
145,yahyali,38.1023,35.357,20.97,58,12,3.53,TR,1690222492
146,hirara,24.8,125.2833,28.15,83,75,4.63,JP,1690222489
147,pariaman,-0.619,100.12,24.03,84,69,1.33,ID,1690222492
148,gemena,3.25,19.7667,23.66,84,92,0.39,CD,1690222492
149,taungoo,18.9333,96.4333,24.29,94,99,1.68,MM,1690222492
150,cabedelo,-6.9811,-34.8339,28.37,74,14,7.66,BR,1690222492
151,torghay,49.6339,63.4981,29.03,24,88,5.04,KZ,1690222493
152,enewetak,11.3474,162.3373,28.49,75,78,6.79,MH,1690222493
153,east london,-33.0153,27.9116,11.52,71,0,2.06,ZA,1690222493
154,nadym,65.5333,72.5167,20.08,72,39,3.73,RU,1690222493
155,lodwar,3.1191,35.5973,31.52,37,32,3.23,KE,1690222493
156,khawr fakkan,25.3313,56.342,30.03,71,100,4.24,AE,1690222493
157,itaituba,-4.2761,-55.9836,37.09,30,20,4.12,BR,1690222493
158,nema,57.5067,50.5011,13.75,92,45,2.37,RU,1690222494
159,atafu village,-8.5421,-172.5159,28.97,71,60,7.52,TK,1690222494
160,abepura,-2.6333,140.5833,24.45,88,20,0.0,ID,1690222494
161,sahiwal,30.6667,73.1,31.81,61,100,0.91,PK,1690222494
162,fale old settlement,-9.3852,-171.2468,28.73,73,20,7.74,TK,1690222494
163,port lincoln,-34.7333,135.8667,12.78,75,30,3.68,AU,1690222494
164,utrik,11.2278,169.8474,28.31,76,41,7.25,MH,1690222494
165,thompson,55.7435,-97.8558,25.09,38,20,4.12,CA,1690222495
166,bhuj,23.2667,69.6667,27.71,84,31,6.69,IN,1690222049
167,lewiston orchards,46.3804,-116.9754,32.5,25,0,3.09,US,1690222495
168,ilulissat,69.2167,-51.1,9.01,81,20,2.57,GL,1690222500
169,aasiaat,68.7098,-52.8699,3.84,95,100,2.66,GL,1690222500
170,nizhneangarsk,55.7833,109.55,9.99,87,95,1.23,RU,1690222500
171,la sarre,48.8002,-79.1996,16.03,96,100,2.35,CA,1690222295
172,gouyave,12.1646,-61.7296,27.63,80,33,7.68,GD,1690222259
173,northam,51.0333,-4.2167,17.01,75,60,6.07,GB,1690222501
174,leh,34.1667,77.5833,18.6,45,33,2.25,IN,1690222481
175,callao,-12.0667,-77.15,24.16,57,40,5.14,PE,1690222501
176,pobe,6.9801,2.6649,23.59,91,98,1.54,BJ,1690222501
177,susuman,62.7833,148.1667,10.45,73,93,1.56,RU,1690222501
178,sibut,5.718,19.0739,23.72,91,79,1.64,CF,1690222502
179,tromso,69.6496,18.957,17.01,63,20,3.6,NO,1690222502
180,ribeira grande,38.5167,-28.7,22.22,94,75,2.24,PT,1690222502
181,gewane,10.1664,40.6453,35.18,29,94,1.3,ET,1690222502
182,wonosobo,-7.36,109.9025,18.05,92,21,0.68,ID,1690222503
183,ardakan,32.31,54.0175,34.82,10,20,1.55,IR,1690222503
184,afaahiti,-17.75,-149.2833,25.93,85,31,8.17,PF,1690222503
185,anadyr,64.75,177.4833,11.28,87,75,6.0,RU,1690222503
186,guatire,10.4762,-66.5427,32.61,56,33,2.43,VE,1690222504
187,sijunjung,-0.6876,100.9537,21.63,87,73,0.9,ID,1690222504
188,yengema,8.7167,-11.1667,24.97,83,98,0.78,SL,1690222505
189,nampula,-15.1165,39.2666,18.14,78,1,2.55,MZ,1690222503
190,beykonak,36.3257,30.303,30.99,43,0,3.37,TR,1690222506
191,darnah,32.767,22.6367,29.39,59,0,7.01,LY,1690222506
192,beledweyne,4.7358,45.2036,28.08,53,100,11.58,SO,1690222506
193,n'zeto,-7.2312,12.8666,21.29,86,26,4.01,AO,1690222507
194,isafjordur,66.0755,-23.124,12.02,87,100,0.0,IS,1690222507
195,swakopmund,-22.6833,14.5333,12.21,86,29,2.24,NA,1690222507
196,natal,-5.795,-35.2094,28.36,65,20,9.77,BR,1690222508
197,ushtobe,45.2514,77.9838,26.76,19,0,5.84,KZ,1690222508
198,revda,56.801,59.9303,13.51,94,82,2.01,RU,1690222508
199,lorengau,-2.0226,147.2712,24.47,93,100,2.4,PG,1690222508
200,prince george,53.9166,-122.753,15.7,85,75,1.03,CA,1690222508
201,kuhmo,64.1333,29.5167,10.8,97,100,1.33,FI,1690222509
202,nueva gerona,21.8833,-82.8,32.48,59,6,4.98,CU,1690222509
203,takoradi,4.8845,-1.7554,25.02,87,100,3.26,GH,1690222441
204,gaozhou,21.9392,110.8461,25.72,84,58,1.55,CN,1690222509
205,turkmenbasy,40.0222,52.9552,33.43,19,0,4.12,TM,1690222509
206,valparaiso,-33.0393,-71.6273,21.13,41,0,4.12,CL,1690222510
207,mount gambier,-37.8333,140.7667,8.95,82,60,0.42,AU,1690222510
208,tevriz,57.509,72.4042,14.71,98,97,2.0,RU,1690222510
209,ust-nera,64.5667,143.2,15.62,60,83,3.42,RU,1690222510
210,yamada,39.4667,141.95,23.12,86,68,2.4,JP,1690222510
211,port alfred,-33.5906,26.891,13.01,65,2,4.26,ZA,1690222510
212,lapovo,44.1842,21.0973,26.35,51,2,3.01,RS,1690222511
213,polyarnyy,69.1989,33.4478,9.59,96,100,5.9,RU,1690222511
214,praia da vitoria,38.7333,-27.0667,25.14,78,40,5.93,PT,1690222511
215,deqen,29.9618,90.7188,10.74,91,99,1.6,CN,1690222511
216,kenai,60.5544,-151.2583,15.05,89,100,4.63,US,1690222511
217,luxor,25.6989,32.6421,38.18,12,2,3.13,EG,1690222512
218,vilyuysk,63.7553,121.6247,18.03,91,64,3.19,RU,1690222512
219,dudinka,69.4058,86.1778,13.68,69,90,4.06,RU,1690222512
220,saldanha,-33.0117,17.9442,11.25,66,0,5.64,ZA,1690222299
221,ulaangom,49.9811,92.0667,16.37,53,32,2.41,MN,1690222512
222,beacon square,28.2086,-82.7554,33.43,81,86,2.24,US,1690222512
223,petropavlovsk-kamchatsky,53.0452,158.6483,10.33,100,0,2.0,RU,1690222513
224,merizo village,13.2658,144.6691,27.31,93,100,5.08,GU,1690222513
225,misratah,32.3754,15.0925,31.56,54,0,5.04,LY,1690222513
226,laojunmiao,39.8333,97.7333,24.55,18,18,3.6,CN,1690222513
227,kilindoni,-7.9139,39.6668,25.07,77,31,7.18,TZ,1690222513
228,hithadhoo,-0.6,73.0833,28.47,78,100,7.08,MV,1690222513
229,gaspe,48.8334,-64.4819,21.12,83,75,6.17,CA,1690222513
230,vesele,47.0148,34.915,21.36,41,47,1.94,UA,1690222514
231,buncrana,55.1333,-7.45,14.87,75,99,4.79,IE,1690222514
232,poxoreo,-15.8372,-54.3892,33.7,19,0,2.66,BR,1690222514
233,nizhneudinsk,54.9076,99.0276,13.18,92,57,1.65,RU,1690222514
234,kourou,5.1552,-52.6478,30.03,80,33,4.17,GF,1690222514
235,ageyevo,54.1588,36.4693,19.15,94,62,2.7,RU,1690222514
236,port blair,11.6667,92.75,26.96,87,100,6.91,IN,1690222026
237,dryden,49.7833,-92.7503,23.16,46,40,3.6,CA,1690222515
238,tarime,-1.35,34.3667,19.64,70,87,0.99,TZ,1690222515
239,laminusa,5.5549,120.9136,28.25,80,100,7.97,PH,1690222515
240,remire-montjoly,4.9167,-52.2667,30.02,66,0,1.03,GF,1690222515
241,san patricio,28.017,-97.5169,36.2,40,33,5.6,US,1690222515
242,olonkinbyen,70.9221,-8.7187,4.92,91,100,5.79,SJ,1690222516
243,chinchilla,-26.75,150.6333,8.08,81,0,5.2,AU,1690222516
244,san marcos yachihuacaltepec,19.3242,-99.6794,18.62,55,100,2.06,MX,1690222516
245,hammerfest,70.6634,23.6821,11.25,87,75,5.14,NO,1690222516
246,whitehorse,60.7161,-135.0538,15.57,77,75,4.63,CA,1690222517
247,roswell,34.0232,-84.3616,33.25,50,0,2.57,US,1690222383
248,tralee,52.2704,-9.7026,14.75,76,99,3.94,IE,1690222517
249,pallasovka,50.05,46.8833,23.26,54,99,2.84,RU,1690222517
250,ardestan,33.3761,52.3694,32.8,13,11,5.26,IR,1690222517
251,west bay,19.3667,-81.4167,33.04,62,40,5.66,KY,1690222517
252,roma,43.2128,-75.4557,29.76,52,44,3.32,US,1690222322
253,nikologory,56.1413,41.9922,13.91,95,100,3.99,RU,1690222518
254,vrontados,38.4089,26.1328,30.92,42,0,4.63,GR,1690222518
255,vadso,70.0744,29.7487,10.09,93,75,6.69,NO,1690222518
256,sanctuary point,-35.1114,150.629,11.53,82,2,2.12,AU,1690222518
257,guiuan,11.0333,125.7247,28.64,78,100,11.94,PH,1690222518
258,novospasskoye,53.1468,47.7514,18.44,72,68,2.07,RU,1690222519
259,podporozh'ye,60.9112,34.1706,13.19,93,100,1.52,RU,1690222519
260,sedico,46.1111,12.1003,23.61,92,99,2.24,IT,1690222519
261,poyang,28.9924,116.6675,27.43,85,85,2.41,CN,1690222519
262,saudarkrokur,65.7461,-19.6394,10.16,92,100,0.84,IS,1690222519
263,uyo,5.0333,7.9266,23.24,94,81,1.4,NG,1690222520
264,haimen,23.1935,116.6142,27.94,82,92,2.13,CN,1690222520
265,yukhnov,54.7444,35.2297,15.61,95,74,1.73,RU,1690222520
266,qaqortoq,60.7167,-46.0333,7.22,86,92,3.62,GL,1690222520
267,el puerto de santa maria,36.5939,-6.233,28.12,73,0,8.23,ES,1690222272
268,lauro de freitas,-12.8944,-38.3272,29.01,58,20,5.14,BR,1690222520
269,rodolfo sanchez taboada,31.7167,-116.5667,23.39,73,11,1.79,MX,1690222521
270,regina,50.4501,-104.6178,30.02,48,75,8.75,CA,1690222311
271,brookings,44.3114,-96.7984,30.59,50,0,5.14,US,1690222410
272,ayr,55.4627,-4.6339,16.84,63,40,6.17,GB,1690222521
273,palembang,-2.9167,104.7458,25.05,94,40,0.0,ID,1690222521
274,uvinza,-5.1036,30.3911,22.93,47,48,1.52,TZ,1690222527
275,santiago de cao,-7.9589,-79.2392,24.07,69,46,5.66,PE,1690222527
276,portrush,55.1959,-6.6493,14.93,72,97,2.68,GB,1690222527
277,kaspiyskiy,45.3929,47.3707,26.07,63,84,3.03,RU,1690222527
278,birjand,32.8663,59.2211,27.26,12,0,2.06,IR,1690222528
279,harrisonburg,38.4496,-78.8689,31.23,46,4,2.6,US,1690222359
280,port elizabeth,-33.918,25.5701,10.16,81,0,2.57,ZA,1690222529
281,nova sintra,14.8667,-24.7167,23.09,77,96,6.06,CV,1690222529
282,villa canas,-34.0057,-61.6076,13.3,10,91,5.25,AR,1690222530
283,santa elena de uairen,4.6167,-61.1333,25.91,62,77,2.78,VE,1690222531
284,colonia,50.9333,6.95,20.79,84,20,7.2,DE,1690222531
285,bardsir,29.9227,56.5743,26.29,15,60,1.79,IR,1690222531
286,port macquarie,-31.4333,152.9167,8.27,92,23,3.74,AU,1690222531
287,chibougamau,49.9168,-74.3659,16.79,82,100,3.06,CA,1690222532
288,zhengjiatun,43.5064,123.5064,20.53,92,35,3.07,CN,1690222532
289,el bolson,-41.9667,-71.5167,5.63,90,99,1.76,AR,1690222532
290,lihue,21.9789,-159.3672,26.77,79,100,7.72,US,1690222532
291,al mindak,20.1588,41.2834,29.78,28,71,0.96,SA,1690222533
292,saint-pierre,-21.3393,55.4781,20.82,83,0,2.57,RE,1690222533
293,mamuju,-2.6748,118.8885,25.16,81,7,1.16,ID,1690222533
294,oriximina,-1.7656,-55.8661,34.74,37,2,2.91,BR,1690222534
295,codrington,-38.2667,141.9667,11.43,71,99,2.15,AU,1690222534
296,urangan,-25.3,152.9,18.03,78,74,9.72,AU,1690222535
297,budva,42.2864,18.84,33.14,70,0,0.51,ME,1690222535
298,crane,31.3974,-102.3501,36.82,18,0,4.96,US,1690222536
299,ad dabbah,18.05,30.95,37.27,11,61,5.64,SD,1690222536
300,hamilton,39.1834,-84.5333,31.66,64,0,5.66,US,1690222448
301,ungsang-nodongjagu,42.3578,130.4622,20.15,94,17,0.46,KP,1690222536
302,guerrero negro,27.9769,-114.0611,26.1,50,55,4.41,MX,1690222536
303,kosti,13.1629,32.6635,34.54,36,69,5.13,SD,1690222537
304,pangai,-19.8,-174.35,19.06,82,20,1.03,TO,1690222537
305,dover,39.1582,-75.5244,29.49,63,40,5.14,US,1690222344
306,chernyshevskiy,63.0128,112.4714,17.97,66,19,2.2,RU,1690222537
307,yorkton,51.2167,-102.4677,25.91,57,0,4.63,CA,1690222537
308,kuhdasht,33.535,47.6061,29.35,15,0,0.26,IR,1690222537
309,botucatu,-22.8858,-48.445,25.79,29,0,1.16,BR,1690222537
310,bamboo flat,11.7,92.7167,25.05,94,100,1.54,IN,1690222538
311,sao gabriel da cachoeira,-0.1303,-67.0892,28.89,89,75,2.57,BR,1690222538
312,kailua-kona,19.6406,-155.9956,28.06,78,20,2.06,US,1690222385
313,nantucket,41.2835,-70.0995,28.03,78,0,5.66,US,1690222405
314,macenta,8.5435,-9.471,22.62,93,100,0.62,GN,1690222538
315,moyale,3.5167,39.0584,22.44,59,94,2.94,KE,1690222539
316,kavaratti,10.5669,72.642,28.2,80,89,7.89,IN,1690222539
317,nizao,18.25,-70.2,33.04,56,45,6.86,DO,1690222539
318,ponta delgada,37.7333,-25.6667,26.4,65,20,5.66,PT,1690222539
319,rongelap,11.1635,166.8941,28.63,76,100,8.3,MH,1690222539
320,constantia,44.1833,28.65,25.39,66,0,8.96,RO,1690222540
321,trinidad,-14.8333,-64.9,32.99,40,20,4.63,BO,1690222540
322,portland,45.5234,-122.6762,21.83,72,75,2.57,US,1690222230
323,vorgashor,67.5833,63.95,16.54,72,74,2.03,RU,1690222540
324,vilyuchinsk,52.9306,158.4028,11.15,90,20,4.57,RU,1690222540
325,launceston,-41.45,147.1667,6.2,93,68,2.06,AU,1690222541
326,mantua,45.1667,10.7833,27.34,73,80,2.68,IT,1690222541
327,thunder bay,48.4001,-89.3168,22.43,45,29,0.48,CA,1690222253
328,marsh harbour,26.5412,-77.0636,30.21,67,16,2.79,BS,1690222541
329,upi,7.0258,124.1667,21.82,90,100,2.74,PH,1690222541
330,javea,38.7833,0.1667,37.02,72,83,4.47,ES,1690222542
331,linhares,-19.3911,-40.0722,25.47,55,5,4.08,BR,1690222296
332,taoudenni,22.6783,-3.9836,45.81,9,44,1.75,ML,1690222542
333,ancud,-41.8697,-73.8203,8.0,90,100,9.37,CL,1690222542
334,boca do acre,-8.7522,-67.3978,36.7,23,0,1.34,BR,1690222542
335,bengkulu,-3.8004,102.2655,23.69,87,42,1.58,ID,1690222542
336,kuching,1.55,110.3333,27.79,91,40,1.34,MY,1690222467
337,tanjungtiram,4.0613,98.3699,24.72,89,49,1.68,ID,1690222548
338,priozersk,61.0393,30.1291,15.05,91,100,0.21,RU,1690222548
339,ibiapina,-3.9233,-40.8894,30.66,29,22,3.32,BR,1690222548
340,tvoroyri,61.5556,-6.8111,9.68,82,75,3.47,FO,1690222548
341,booue,-0.0921,11.9385,26.45,67,89,2.51,GA,1690222548
342,severo-yeniseyskiy,60.3725,93.0408,13.73,95,54,1.11,RU,1690222549
343,hailar,49.2,119.7,16.46,72,97,1.65,CN,1690222549
344,altamont,42.2068,-121.7372,25.55,40,0,2.24,US,1690222549
345,villa dolores,-31.9459,-65.1896,18.71,26,3,2.02,AR,1690222550
346,ataq,14.5377,46.8319,32.77,34,100,2.15,YE,1690222550
347,holualoa,19.6228,-155.9522,25.99,78,20,2.06,US,1690222550
348,saipan,15.1355,145.701,27.39,100,20,3.6,MP,1690222550
349,esil,51.9556,66.4042,20.69,46,51,3.85,KZ,1690222551
350,maragogi,-9.0122,-35.2225,25.48,75,14,5.29,BR,1690222552
351,saint-philippe,-21.3585,55.7679,20.77,84,40,3.91,RE,1690222552
352,smithers,54.7804,-127.1743,12.18,87,100,0.0,CA,1690222553
353,amherst,41.3978,-82.2224,29.18,61,20,4.63,US,1690222553
354,antsiranana,-12.2787,49.2917,22.81,80,12,5.72,MG,1690222554
355,sorong,-0.8833,131.25,25.44,88,86,6.73,ID,1690222554
356,tolanaro,-25.0319,46.9987,19.48,86,18,1.48,MG,1690222555
357,kintinku,-5.8833,35.2333,24.94,41,7,2.13,TZ,1690222555
358,hollins,37.3413,-79.9431,30.5,58,40,3.6,US,1690222555
359,ilo,-17.6394,-71.3375,20.48,73,75,3.09,PE,1690222556
360,bonanza,14.0289,-84.591,32.21,47,97,2.92,NI,1690222556
361,el hajeb,33.6879,-5.371,26.06,32,3,5.15,MA,1690222556
362,puerto baquerizo moreno,-0.9,-89.6,26.55,83,75,5.14,EC,1690222557
363,tamiahua,21.2667,-97.45,24.81,92,100,3.93,MX,1690222557
364,manistee,44.2445,-86.3242,26.03,81,0,3.6,US,1690222557
365,manta,-0.95,-80.7333,30.88,74,20,5.81,EC,1690222331
366,shakawe,-18.3667,21.85,18.43,24,16,1.88,BW,1690222558
367,tongshan,34.1805,117.1571,28.26,73,93,1.33,CN,1690222558
368,mizdah,31.4451,12.9801,36.35,11,0,3.69,LY,1690222558
369,belmonte,-15.8631,-38.8828,24.74,65,20,4.86,BR,1690222558
370,dunedin,-45.8742,170.5036,6.0,96,80,0.89,NZ,1690222559
371,sao miguel do araguaia,-13.275,-50.1628,34.04,21,0,2.73,BR,1690222559
372,hermanus,-34.4187,19.2345,6.56,67,0,2.46,ZA,1690222559
373,south hedland,-20.4089,118.5983,11.96,43,0,3.6,AU,1690222559
374,dawei,14.0833,98.2,24.66,93,100,1.24,MM,1690222559
375,koungheul,13.9833,-14.8,32.21,57,86,2.52,SN,1690222559
376,tual,-5.6667,132.75,25.28,76,98,10.87,ID,1690222560
377,yangjiang,21.85,111.9667,26.41,83,33,1.94,CN,1690222560
378,squamish,49.7014,-123.1512,16.67,87,100,3.13,CA,1690222560
379,tchibanga,-2.85,11.0333,23.38,72,77,2.48,GA,1690222560
380,valle de la pascua,9.2155,-66.0073,31.04,53,24,2.24,VE,1690222560
381,ketchikan,55.3422,-131.6461,18.26,72,0,5.66,US,1690222560
382,necocli,8.4234,-76.786,30.49,74,69,2.68,CO,1690222561
383,labytnangi,66.6572,66.4183,20.21,60,92,1.46,RU,1690222561
384,margate,51.3813,1.3862,16.5,78,99,2.24,GB,1690222561
385,araguari,-18.6472,-48.1872,26.16,33,29,3.1,BR,1690222453
386,kudymkar,59.0173,54.656,13.56,95,90,1.69,RU,1690222561
387,machico,32.7,-16.7667,27.23,67,40,3.6,PT,1690222561
388,horsham,51.064,-0.3272,16.73,72,40,2.57,GB,1690222562
389,rikaze,29.25,88.8833,11.36,72,100,1.33,CN,1690222562
390,namibe,-15.1961,12.1522,18.29,85,35,4.07,AO,1690222563
391,tobelo,1.7284,128.0095,25.72,85,73,3.84,ID,1690222563
392,pangoa,-12.1167,-73.0,29.62,44,44,2.21,PE,1690222568
393,ayancik,41.9447,34.5861,23.06,68,13,1.18,TR,1690222569
394,naracoorte,-36.9579,140.7383,10.84,69,98,1.12,AU,1690222569
395,agat village,13.3886,144.6585,27.52,93,0,2.57,GU,1690222569
396,sigayevo,56.4216,53.7757,13.89,96,79,1.27,RU,1690222569
397,luorong,24.4058,109.6086,27.54,78,100,1.34,CN,1690222569
398,lompoc,34.6391,-120.4579,31.55,79,75,2.57,US,1690222388
399,tyazhinskiy,56.116,88.524,16.23,98,97,2.69,RU,1690222570
400,kapoeta,4.7717,33.5903,28.16,47,95,1.32,SS,1690222570
401,emmeloord,52.7108,5.7486,17.27,82,91,1.79,NL,1690222570
402,sitka,57.0531,-135.33,15.94,77,20,1.54,US,1690222570
403,dhidhdhoo,6.8833,73.1,27.81,82,95,5.67,MV,1690222571
404,sao tome,0.3365,6.7273,23.87,84,100,4.77,ST,1690222571
405,tamanrasset,22.785,5.5228,33.95,10,26,4.12,DZ,1690222571
406,pires do rio,-17.2997,-48.2794,25.33,43,49,3.36,BR,1690222571
407,lazaro cardenas,17.9583,-102.2,31.09,58,100,1.85,MX,1690222572
408,al ghayzah,16.2079,52.176,27.08,82,100,3.16,YE,1690222572
409,conduaga,8.862,117.4893,26.47,89,100,5.33,PH,1690222573
410,turaif,31.6725,38.6637,34.14,10,0,6.17,SA,1690222573
411,pionerskiy,54.9508,20.2275,20.91,73,98,4.27,RU,1690222574
412,capiovi,-26.93,-55.0608,29.82,33,25,2.35,AR,1690222574
413,puerto aysen,-45.4,-72.7,3.02,75,100,3.6,CL,1690222575
414,howrah,22.5892,88.3103,28.0,89,20,1.54,IN,1690222576
415,happy valley-goose bay,53.3168,-60.3315,26.17,57,75,4.63,CA,1690222538
416,nchelenge,-9.3451,28.734,21.67,53,1,2.41,ZM,1690222577
417,nhandeara,-20.6942,-50.0383,29.85,22,0,1.88,BR,1690222577
418,guatrache,-37.6678,-63.5302,11.22,43,98,5.84,AR,1690222577
419,concepcion del oro,24.6333,-101.4167,24.79,31,70,3.02,MX,1690222578
420,bhitarwar,25.8,78.1167,31.99,61,89,2.83,IN,1690222579
421,severnoye,56.3491,78.3619,14.89,91,47,1.47,RU,1690222579
422,fruita,39.1589,-108.729,35.64,20,0,3.6,US,1690222580
423,gulf shores,30.246,-87.7008,34.08,56,0,5.66,US,1690222580
424,sussex,41.1834,-74.6663,30.25,60,0,2.06,US,1690222581
425,diego de almagro,-26.3667,-70.05,23.72,23,2,3.58,CL,1690222581
426,rudnichnyy,59.617,52.4703,13.61,97,96,1.56,RU,1690222581
427,la'ie,21.6477,-157.9253,25.98,76,47,6.79,US,1690222581
428,island harbour,50.724,-1.2758,17.74,81,94,0.89,GB,1690222581
429,komatipoort,-25.4332,31.9548,18.92,69,98,4.95,ZA,1690222582
430,palikir - national government center,6.9248,158.1611,24.41,94,100,4.12,FM,1690222582
431,khandud,36.9513,72.318,20.11,31,29,2.34,AF,1690222582
432,antalaha,-14.9003,50.2788,20.5,90,58,2.79,MG,1690222582
433,sainte-anne-des-monts,49.124,-66.4924,20.93,73,4,7.72,CA,1690222582
434,saint ann's bay,18.4358,-77.201,31.05,71,6,6.98,JM,1690222583
435,mar''ina horka,53.509,28.147,18.12,71,98,2.87,BY,1690222583
436,udachny,66.4167,112.4,14.14,81,98,2.45,RU,1690222298
437,wellington,-41.2866,174.7756,7.15,96,11,1.54,NZ,1690222297
438,errachidia,31.9275,-4.4285,42.03,5,0,6.17,MA,1690222583
439,collierville,35.042,-89.6645,34.28,54,40,4.12,US,1690222538
440,emerald,-23.5333,148.1667,11.3,80,84,10.05,AU,1690222583
441,tazovsky,67.4667,78.7,15.54,90,44,2.16,RU,1690222584
442,villa gesell,-37.2639,-56.973,9.47,63,100,4.6,AR,1690222584
443,barranca,-10.75,-77.7667,22.25,68,18,5.2,PE,1690222505
444,nyagan,62.1406,65.3936,15.66,86,100,1.89,RU,1690222584
445,mar del plata,-38.0023,-57.5575,9.41,63,40,6.71,AR,1690222584
446,marshall,34.3834,-86.3333,31.29,55,0,2.57,US,1690222321
447,barcelos,41.5388,-8.6151,23.29,61,30,5.69,PT,1690222198
448,north battleford,52.7834,-108.2847,28.05,47,0,6.69,CA,1690222585
449,port saint john's,-31.6229,29.5448,15.27,62,6,2.96,ZA,1690222586
450,chipinge,-20.1883,32.6236,14.88,40,0,1.44,ZW,1690222586
451,bel ombre,-4.6167,55.4167,25.91,83,40,6.69,SC,1690222586
452,hadibu,12.65,54.0333,25.17,79,75,10.06,YE,1690222586
453,waingapu,-9.6567,120.2641,22.34,84,65,5.14,ID,1690222586
454,bor,56.3567,44.0669,16.96,86,97,1.18,RU,1690222587
455,tabou,4.423,-7.3528,25.97,81,87,4.17,CI,1690222587
456,awjilah,29.1081,21.2869,39.32,11,0,6.09,LY,1690222587
457,manokwari,-0.8667,134.0833,25.76,81,97,2.48,ID,1690222587
458,zaozersk,69.4005,32.4476,9.25,97,100,5.38,RU,1690222587
459,korla,41.7597,86.1469,29.47,30,97,4.89,CN,1690222588
460,zaragoza,41.6561,-0.8773,28.25,37,0,8.75,ES,1690222423
461,paita,-5.0892,-81.1144,24.86,68,33,6.57,PE,1690222588
462,clarksville,36.5298,-87.3595,32.1,61,0,5.66,US,1690222536
463,sligo,54.2697,-8.4694,15.17,63,0,5.66,IE,1690222593
464,keflavik,64.0049,-22.5624,12.95,87,100,3.6,IS,1690222594
465,mandalgovi,45.7625,106.2708,18.99,49,99,2.45,MN,1690222594
466,hotan,37.0997,79.9269,30.02,29,46,1.16,CN,1690222594
467,hastings,50.8552,0.5729,16.07,34,62,6.05,GB,1690222596
468,minas de marcona,-15.2119,-75.1103,17.65,58,12,6.61,PE,1690222596
469,pontes e lacerda,-15.2261,-59.3353,35.56,20,0,1.62,BR,1690222596
470,sisimiut,66.9395,-53.6735,9.15,76,70,5.38,GL,1690222596
471,itoman,26.1247,127.6694,28.21,83,75,4.63,JP,1690222597
472,ambon,-3.6954,128.1814,27.35,91,40,2.57,ID,1690222482
473,palmer,42.1584,-72.3287,30.87,54,75,6.17,US,1690222597
474,novodvinsk,64.4165,40.8122,13.36,89,81,2.09,RU,1690222597
475,al bawiti,28.3492,28.8659,35.07,19,0,8.33,EG,1690222597
476,mao,39.8885,4.2658,28.31,89,20,4.63,ES,1690222598
477,hun,29.1268,15.9477,38.85,12,0,5.59,LY,1690222598
478,namtsy,62.7161,129.6658,19.17,73,28,2.11,RU,1690222598
479,krupki,54.3178,29.1358,17.31,86,79,1.09,BY,1690222598
480,bandrele,-12.9067,45.1914,24.86,73,100,2.57,YT,1690222599
481,hobyo,5.3505,48.5268,25.56,76,59,13.65,SO,1690222599
482,sao joao da barra,-21.6403,-41.0511,26.05,70,6,6.12,BR,1690222555
483,tazacorte,28.629,-17.9293,23.54,83,75,5.14,ES,1690222599
484,midvagur,62.0511,-7.1939,8.46,87,100,4.12,FO,1690222599
485,norfolk,42.1668,-71.2495,31.12,63,0,4.63,US,1690222434
486,nelson bay,-32.7167,152.15,11.67,99,55,4.47,AU,1690222600
487,overath,50.9328,7.2839,20.77,73,20,7.2,DE,1690222391
488,kuanda,56.3161,116.0806,16.47,81,70,1.28,RU,1690222600
489,corowa,-36.0333,146.3833,1.9,96,4,1.7,AU,1690222600
490,santa cruz,-17.8,-63.1667,27.7,50,75,5.14,BO,1690222563
491,tezu,27.9167,96.1667,25.29,88,100,1.43,IN,1690222600
492,yenangyaung,20.4667,94.8833,28.37,68,58,6.31,MM,1690222600
493,cockburn town,21.4612,-71.1419,30.98,62,40,5.66,TC,1690222412
494,grand-bassam,5.2118,-3.7388,25.98,87,99,2.75,CI,1690222601
495,farafangana,-22.8167,47.8333,20.91,87,0,4.13,MG,1690222601
496,changji,44.0167,87.3167,29.44,28,0,3.0,CN,1690222601
497,qarah bagh,34.9402,61.7759,28.22,15,0,5.78,AF,1690222601
498,thulamahashi,-24.7246,31.1994,17.82,71,82,4.3,ZA,1690222601
499,montrose,38.4166,-108.2673,27.67,15,61,5.31,US,1690222559
500,ust'-kulom,61.6864,53.6902,16.18,72,58,1.58,RU,1690222602
501,baie-saint-paul,47.4411,-70.4986,29.48,74,8,7.15,CA,1690222602
502,puerto lempira,15.2667,-83.7667,31.08,66,75,5.14,HN,1690222602
503,ciudad insurgentes,25.2625,-111.7753,32.74,39,44,2.02,MX,1690222602
504,driefontein,-27.0177,30.4498,10.43,88,100,2.26,ZA,1690222602
505,thinadhoo,0.5333,72.9333,28.47,78,75,6.18,MV,1690222602
506,floro,61.5996,5.0328,17.04,82,75,2.57,NO,1690222602
507,mora,11.0461,14.1401,30.85,45,36,2.45,CM,1690222603
508,berezovyy,51.6667,135.7,19.43,83,97,1.25,RU,1690222603
509,aras-asan,8.8908,126.3033,26.4,81,100,5.32,PH,1690222603
510,dharan,26.8125,87.2835,25.29,85,87,1.75,NP,1690222603
511,ghoti budrukh,19.7167,73.6333,22.18,98,100,5.47,IN,1690222603
512,sandakan,5.8402,118.1179,26.82,89,20,1.54,MY,1690222603
513,chinhoyi,-17.3667,30.2,17.87,32,0,1.58,ZW,1690222603
514,lethem,3.3803,-59.7968,30.93,61,29,1.07,GY,1690222604
515,yanam,16.7333,82.2167,25.35,93,100,4.21,IN,1690222604
516,yarmouth,41.7057,-70.2286,29.23,69,0,5.66,US,1690222604
517,porto novo,6.4965,2.6036,24.9,88,100,1.77,BJ,1690222560
518,rio casca,-20.2261,-42.6508,26.59,50,53,2.95,BR,1690222604
519,wahpeton,46.2652,-96.6059,31.63,38,0,2.37,US,1690222604
520,jaisalmer,26.9147,70.9181,32.58,61,100,3.38,IN,1690222605
521,al kharijah,25.4514,30.5464,35.26,13,0,4.29,EG,1690222605
522,kerikeri,-35.2268,173.9474,7.17,93,28,2.3,NZ,1690222605
523,igarka,67.4667,86.5833,15.71,71,95,2.17,RU,1690222492
524,road town,18.4167,-64.6167,32.02,58,40,5.66,VG,1690222365
525,moanda,-1.5575,13.2178,26.45,62,87,1.41,GA,1690222605
526,moreira sales,-24.0622,-53.0069,24.46,51,94,2.67,BR,1690222605
527,chifeng,42.2683,118.9636,20.31,77,45,1.87,CN,1690222606
528,nishinoomote,30.7333,131.0,27.41,85,50,5.6,JP,1690222484
529,kiunga,-6.1219,141.2906,21.25,98,97,1.25,PG,1690222606
530,connell,46.6635,-118.8611,28.89,33,53,2.24,US,1690222606
531,mbanza-ngungu,-5.25,14.8667,24.23,55,31,1.18,CD,1690222606
532,dumai,1.6833,101.45,24.22,89,40,0.88,ID,1690222606
533,tshabong,-26.05,22.45,14.54,12,89,2.71,BW,1690222606
534,westport,41.1415,-73.3579,31.37,61,0,3.09,US,1690222607
535,greymouth,-42.4667,171.2,5.84,89,10,1.75,NZ,1690222607
536,dolores,-36.3132,-57.6792,10.57,51,100,4.46,AR,1690222607
537,santo antonio da platina,-23.295,-50.0772,27.59,32,1,1.16,BR,1690222607
538,zakynthos,37.7914,20.8953,34.62,36,0,0.0,GR,1690222607
539,nuuk,64.1835,-51.7216,14.34,58,20,3.09,GL,1690222607
540,kotel'nikovo,47.6317,43.1461,22.69,68,100,1.2,RU,1690222608
541,oltinko'l,40.8011,72.1634,31.34,23,17,0.62,UZ,1690222608
542,meizhou,24.2977,116.1072,26.43,87,81,0.57,CN,1690222608
543,ericeira,38.9627,-9.4156,23.82,69,12,7.14,PT,1690222608
544,palangkaraya,-2.2,113.8333,22.76,98,60,1.2,ID,1690222488
545,colonel hill,22.7667,-74.2167,28.8,74,18,5.48,BS,1690222608
546,mawlaik,23.6333,94.4167,25.74,96,31,0.45,MM,1690222608
547,solnechnyy,50.7214,136.6319,18.78,98,99,1.7,RU,1690222609
548,camana,-16.6228,-72.7111,19.5,70,18,3.96,PE,1690222609
549,krasnovishersk,60.4078,57.082,15.21,80,68,1.14,RU,1690222609
550,oranjemund,-28.55,16.4333,12.79,75,100,8.23,NA,1690222609
551,valladolid,41.5833,-4.6667,26.02,30,47,7.2,ES,1690222501
552,carnarvon,-24.8667,113.6333,16.28,72,48,4.56,AU,1690222609
553,bella union,-30.2752,-57.6007,14.77,73,100,5.88,UY,1690222609
554,chiras,35.4167,65.9823,14.88,41,47,0.81,AF,1690222610
555,tsiombe,-25.3,45.4833,17.3,87,47,1.37,MG,1690222610
556,privolzhskiy,51.4,46.0333,22.39,43,93,2.42,RU,1690222610
557,vyazemskiy,47.5378,134.7525,19.82,94,2,2.29,RU,1690222610
558,zhosaly,45.4878,64.0781,34.58,21,20,4.99,KZ,1690222610
559,lerma,42.0261,-3.7598,18.31,24,68,4.08,ES,1690222610
560,valdivia,-39.8142,-73.2459,8.05,97,100,1.53,CL,1690222595
561,nushki,29.5542,66.0215,27.94,59,100,1.13,PK,1690222611
562,malango,-2.9627,119.9001,18.85,98,64,0.21,ID,1690222611
563,san jose del guaviare,2.5729,-72.6459,26.36,88,66,1.14,CO,1690222611
564,thenzawl,23.3167,92.75,21.2,99,54,0.4,IN,1690222611
565,vangaindrano,-23.35,47.6,19.69,92,0,2.55,MG,1690222611
566,suining,30.508,105.5733,24.52,90,92,1.06,CN,1690222611
567,sinop,41.7711,34.8709,16.18,90,61,0.22,TR,1690222611
568,ardabil,38.2498,48.2933,19.75,52,20,6.17,IR,1690222612
569,ternate,0.8,127.4,26.66,80,38,3.66,ID,1690222612
570,sur,22.5667,59.5289,29.6,71,100,1.13,OM,1690222103
571,kostomuksha,64.571,30.5767,10.73,99,100,1.65,RU,1690222612
572,imeni morozova,59.9757,31.0376,17.75,99,82,2.61,RU,1690222612
573,asadabad,34.7824,48.1185,26.97,13,0,1.87,IR,1690222612
